CountryOrTerritory,Namespace,Network,ResponsibleParty,TimeZone,StationName,EoICode,StationType,StationArea,Pollutant,SamplingPointId,Latitude,Longitude,Altitudee,MeasurementRegime,OperationalActivityBegin,OperationalActivityEnd,Sample,SamplingProcess,MeasurementEquipment,MeasurementMethod,SamplingEquipment,AnalyticalTechnique,envelope
Spain,ES.BDCA.AQD,CCAA País Vasco,"DEPARTAMENTO DE MEDIO AMBIENTE, POLITICA TERRITORIAL Y VIVIENDA - GOBIERNO VASCO",UTC,ARETA,ES1350A,Industrial,Suburban,Particulate matter < 10 µm (aerosol),SP_01036005_10_49,43.14805555,-2.94333333,114,Continuous data collection,2003-03-03T00:00:00Z,2013-01-21T00:00:00Z,SAM_01036005_10_49,SPP_01036005_10_49.1,Unknown,Beta ray attenuation,,,http://cdr.eionet.europa.eu/es/eu/aqd/d/envxfin7q
Spain,ES.BDCA.AQD,CCAA Com. Valenciana,"CONSELLERIA DE AGRICULTURA, MEDIO AMBIENTE, CAMBIO CLIMATICO Y DESARROLLO RURAL (VALENCIA)",UTC,ALACANT-EL PLÁ,ES1635A,Traffic,Urban,Particulate matter < 10 µm (aerosol),SP_03014006_10_M,38.35944444,-0.47194444,45,Continuous data collection,2002-10-01T00:00:00Z,,SAM_03014006_10_M,SPP_03014006_10_M.1,,,,Gravimetric analysis,http://cdr.eionet.europa.eu/es/eu/aqd/d/envxfin7q
Spain,ES.BDCA.AQD,CCAA Com. Valenciana,"CONSELLERIA DE AGRICULTURA, MEDIO AMBIENTE, CAMBIO CLIMATICO Y DESARROLLO RURAL (VALENCIA)",UTC,BENIDORM,ES1675A,Background,Suburban,Nitrogen monoxide (air),SP_03031002_7_8,38.57138888,-0.14666666,44,Continuous data collection,2016-03-30T00:00:00Z,,SAM_03031002_7_8,SPP_03031002_7_8.2,Unknown,Chemiluminescence,,,http://cdr.eionet.europa.eu/es/eu/aqd/d/envxfin7q
Spain,ES.BDCA.AQD,CCAA Com. Valenciana,"CONSELLERIA DE AGRICULTURA, MEDIO AMBIENTE, CAMBIO CLIMATICO Y DESARROLLO RURAL (VALENCIA)",UTC,ELX-AGROALIMENTARI,ES1624A,Background,Suburban,Benzo(a)anthracene in PM10 (aerosol),SP_03065006_99_M,38.24222222,-0.68277777,44,Continuous data collection,2009-01-01T00:00:00Z,,SAM_03065006_99_M,SPP_03065006_99_M.1,,,,Gas chromatography + mass spectrometry (GC-MS),http://cdr.eionet.europa.eu/es/eu/aqd/d/envxfin7q
Spain,ES.BDCA.AQD,CCAA Andalucía,"CONSEJERIA DE AGRICULTURA, GANADERIA, PESCA Y DESARROLLO SOSTENIBLE. DIRECCION GENERAL DE CALIDAD AMBIENTAL Y CAMBIO CLIMATICO (JUNTA DE ANDALUCIA)",UTC,EL BOTICARIO,ES1786A,Background,Suburban,Ozone (air),SP_04013005_14_6,36.86495,-2.3905,55,Continuous data collection,2005-06-08T00:00:00Z,,SAM_04013005_14_6,SPP_04013005_14_6.1,Unknown,Ultraviolet (UV) photometry,,,http://cdr.eionet.europa.eu/es/eu/aqd/d/envxfin7q
Spain,ES.BDCA.AQD,CCAA Andalucía,"CONSEJERIA DE AGRICULTURA, GANADERIA, PESCA Y DESARROLLO SOSTENIBLE. DIRECCION GENERAL DE CALIDAD AMBIENTAL Y CAMBIO CLIMATICO (JUNTA DE ANDALUCIA)",UTC,PZA. DEL CASTILLO,ES1845A,Industrial,Urban,indeno_123cd_pyrene in PM10 (aerosol),SP_04032005_95_M,36.99678,-1.89535,5,Continuous data collection,2009-01-01T00:00:00Z,,SAM_04032005_95_M,SPP_04032005_95_M.2,,,,High performance liquid chromatography - mass spectrometry (HPLC-MS),http://cdr.eionet.europa.eu/es/eu/aqd/d/envxfin7q
Spain,ES.BDCA.AQD,CCAA Andalucía,"CONSEJERIA DE AGRICULTURA, GANADERIA, PESCA Y DESARROLLO SOSTENIBLE. DIRECCION GENERAL DE CALIDAD AMBIENTAL Y CAMBIO CLIMATICO (JUNTA DE ANDALUCIA)",UTC,PALOMARES,ES1547A,Industrial,Rural,Nitrogen oxides (air),SP_04035002_12_8,37.25497,-1.78174,11,Continuous data collection,2000-09-01T00:00:00Z,,SAM_04035002_12_8,SPP_04035002_12_8.1,Unknown,Chemiluminescence,,,http://cdr.eionet.europa.eu/es/eu/aqd/d/envxfin7q
Spain,ES.BDCA.AQD,CCAA Andalucía,"CONSEJERIA DE AGRICULTURA, GANADERIA, PESCA Y DESARROLLO SOSTENIBLE. DIRECCION GENERAL DE CALIDAD AMBIENTAL Y CAMBIO CLIMATICO (JUNTA DE ANDALUCIA)",UTC,EL EJIDO,ES1549A,Background,Urban,o-Xylene (air),SP_04902001_39_I,36.76972,-2.81097,97,Continuous data collection,2009-01-01T00:00:00Z,,SAM_04902001_39_I,SPP_04902001_39_I.1,,,,Gas chromatography + mass spectrometry (GC-MS),http://cdr.eionet.europa.eu/es/eu/aqd/d/envxfin7q
Spain,ES.BDCA.AQD,CCAA Andalucía,"CONSEJERIA DE AGRICULTURA, GANADERIA, PESCA Y DESARROLLO SOSTENIBLE. DIRECCION GENERAL DE CALIDAD AMBIENTAL Y CAMBIO CLIMATICO (JUNTA DE ANDALUCIA)",UTC,EL EJIDO,ES1549A,Background,Urban,"m,p-Xylene (air)",SP_04902001_431_I,36.76972,-2.81097,97,Continuous data collection,2009-01-01T00:00:00Z,,SAM_04902001_431_I,SPP_04902001_431_I.1,,,,Gas chromatography + mass spectrometry (GC-MS),http://cdr.eionet.europa.eu/es/eu/aqd/d/envxfin7q
Spain,ES.BDCA.AQD,CCAA Extremadura,"CONSEJERIA DE MEDIO AMBIENTE Y RURAL, POLITICAS AGRARIAS Y TERRITORIO (JUNTA DE EXTREMADURA)",UTC,BADAJOZ,ES1601A,Background,Urban,Carbon monoxide (air),SP_06015001_6_48,38.88763,-7.01145,390,Continuous data collection,2001-05-31T00:00:00Z,,SAM_06015001_6_48,SPP_06015001_6_48.1,DASIBI 3008 CO analyser,Non-dispersive infrared spectroscopy (NDIR),,,http://cdr.eionet.europa.eu/es/eu/aqd/d/envxfin7q
Spain,ES.BDCA.AQD,CCAA Islas Baleares,"DIRECCIÓ GENERAL D'ENERGIA I CANVI CLIMÀTIC. CONSELLERIA DE TERRITORI, ENERGIA I MOBILITAT. SECCIÓ CONTAMINACIÓ ATMOSFÈRICA. GOVERN DE LES ILLES BALEARS",UTC,S'ALBUFERA,ES1093A,Background,Rural,Dibenzo(ah)anthracene in PM10 (aerosol),SP_07003001_94_M,39.78995,3.07413,6,Continuous data collection,2014-01-01T00:00:00Z,,SAM_07003001_94_M,SPP_07003001_94_M.1,,,,High performance liquid chromatography - mass spectrometry (HPLC-MS),http://cdr.eionet.europa.eu/es/eu/aqd/d/envxfin7q
Spain,ES.BDCA.AQD,CCAA Islas Baleares,"DIRECCIÓ GENERAL D'ENERGIA I CANVI CLIMÀTIC. CONSELLERIA DE TERRITORI, ENERGIA I MOBILITAT. SECCIÓ CONTAMINACIÓ ATMOSFÈRICA. GOVERN DE LES ILLES BALEARS",UTC,CAN MISSES,ES1246A,Industrial,Urban,Particulate matter < 10 µm (aerosol),SP_07026001_10_49,38.9138,1.4143,25,Continuous data collection,2000-01-01T00:00:00Z,2018-10-08T00:00:00Z,SAM_07026001_10_49,SPP_07026001_10_49.1,Thermo model 5030 SHARP Particular Monitor with PM10 & PM2.5 heads,Beta ray attenuation,,,http://cdr.eionet.europa.eu/es/eu/aqd/d/envxfin7q
Spain,ES.BDCA.AQD,CCAA Islas Baleares,"DIRECCIÓ GENERAL D'ENERGIA I CANVI CLIMÀTIC. CONSELLERIA DE TERRITORI, ENERGIA I MOBILITAT. SECCIÓ CONTAMINACIÓ ATMOSFÈRICA. GOVERN DE LES ILLES BALEARS",UTC,SANT LLUIS,ES1094A,Industrial,Urban,Particulate matter < 10 µm (aerosol),SP_07032001_10_49,39.8749,4.2586,65,Continuous data collection,2000-01-01T00:00:00Z,2018-12-31T00:00:00Z,SAM_07032001_10_49,SPP_07032001_10_49.1,Thermo model 5030 SHARP Particular Monitor with PM10 & PM2.5 heads,Beta ray attenuation,,,http://cdr.eionet.europa.eu/es/eu/aqd/d/envxfin7q
Spain,ES.BDCA.AQD,CCAA Islas Baleares,"DIRECCIÓ GENERAL D'ENERGIA I CANVI CLIMÀTIC. CONSELLERIA DE TERRITORI, ENERGIA I MOBILITAT. SECCIÓ CONTAMINACIÓ ATMOSFÈRICA. GOVERN DE LES ILLES BALEARS",UTC,POUS,ES1095A,Industrial,Urban,Particulate matter < 10 µm (aerosol),SP_07032002_10_49,39.8909,4.253,55,Continuous data collection,2000-11-01T00:00:00Z,,SAM_07032002_10_49,SPP_07032002_10_49.1,Thermo model 5030 SHARP Particular Monitor with PM10 & PM2.5 heads,Beta ray attenuation,,,http://cdr.eionet.europa.eu/es/eu/aqd/d/envxfin7q
Spain,ES.BDCA.AQD,CCAA Islas Baleares,"DIRECCIÓ GENERAL D'ENERGIA I CANVI CLIMÀTIC. CONSELLERIA DE TERRITORI, ENERGIA I MOBILITAT. SECCIÓ CONTAMINACIÓ ATMOSFÈRICA. GOVERN DE LES ILLES BALEARS",UTC,POUS,ES1095A,Industrial,Urban,Nitrogen oxides (air),SP_07032002_12_8,39.8909,4.253,55,Continuous data collection,1993-01-01T00:00:00Z,,SAM_07032002_12_8,SPP_07032002_12_8.1,MCV 30-QL,Chemiluminescence,,,http://cdr.eionet.europa.eu/es/eu/aqd/d/envxfin7q
Spain,ES.BDCA.AQD,CCAA Islas Baleares,"DIRECCIÓ GENERAL D'ENERGIA I CANVI CLIMÀTIC. CONSELLERIA DE TERRITORI, ENERGIA I MOBILITAT. SECCIÓ CONTAMINACIÓ ATMOSFÈRICA. GOVERN DE LES ILLES BALEARS",UTC,POUS,ES1095A,Industrial,Urban,Nitrogen dioxide (air),SP_07032002_8_8,39.8909,4.253,55,Continuous data collection,1993-01-01T00:00:00Z,,SAM_07032002_8_8,SPP_07032002_8_8.1,MCV 30-QL,Chemiluminescence,,,http://cdr.eionet.europa.eu/es/eu/aqd/d/envxfin7q
Spain,ES.BDCA.AQD,EMEP/VAG/CAMP,AGENCIA ESTATAL METEOROLOGÍA,UTC,MAHÓN,ES0006R,Background,Rural,Sulphur dioxide (air),SP_07032999_1_38,39.87528,4.31639,78,Continuous data collection,2008-01-01T00:00:00Z,,SAM_07032999_1_38,SPP_07032999_1_38.1,Unknown,UV fluorescence,,,http://cdr.eionet.europa.eu/es/eu/aqd/d/envxfin7q
Spain,ES.BDCA.AQD,EMEP/VAG/CAMP,AGENCIA ESTATAL METEOROLOGÍA,UTC,MAHÓN,ES0006R,Background,Rural,Benzo(k)fluoranthene in PM10 (aerosol),SP_07032999_96_M,39.87528,4.31639,78,Continuous data collection,2009-01-01T00:00:00Z,,SAM_07032999_96_M,SPP_07032999_96_M.1,,,,Gas chromatography + mass spectrometry (GC-MS),http://cdr.eionet.europa.eu/es/eu/aqd/d/envxfin7q
Spain,ES.BDCA.AQD,CCAA Islas Baleares,"DIRECCIÓ GENERAL D'ENERGIA I CANVI CLIMÀTIC. CONSELLERIA DE TERRITORI, ENERGIA I MOBILITAT. SECCIÓ CONTAMINACIÓ ATMOSFÈRICA. GOVERN DE LES ILLES BALEARS",UTC,FONERS,ES1610A,Traffic,Urban,Ozone (air),SP_07040002_14_6,39.57008,2.65583,23,Continuous data collection,2001-10-01T00:00:00Z,,SAM_07040002_14_6,SPP_07040002_14_6.1,MCV 48-AUV,Ultraviolet (UV) photometry,,,http://cdr.eionet.europa.eu/es/eu/aqd/d/envxfin7q
Spain,ES.BDCA.AQD,CCAA Islas Baleares,"DIRECCIÓ GENERAL D'ENERGIA I CANVI CLIMÀTIC. CONSELLERIA DE TERRITORI, ENERGIA I MOBILITAT. SECCIÓ CONTAMINACIÓ ATMOSFÈRICA. GOVERN DE LES ILLES BALEARS",UTC,FONERS,ES1610A,Traffic,Urban,Lead in PM10 (aerosol),SP_07040002_19_M,39.57008,2.65583,23,Continuous data collection,2009-01-01T00:00:00Z,,SAM_07040002_19_M,SPP_07040002_19_M.1,,,,Graphite furnace atomic absorption spectrometry (GF-AAS),http://cdr.eionet.europa.eu/es/eu/aqd/d/envxfin7q
Spain,ES.BDCA.AQD,CCAA Andalucía,"CONSEJERIA DE AGRICULTURA, GANADERIA, PESCA Y DESARROLLO SOSTENIBLE. DIRECCION GENERAL DE CALIDAD AMBIENTAL Y CAMBIO CLIMATICO (JUNTA DE ANDALUCIA)",UTC,E2: ALCORNOCALES,ES1648A,Background,Rural,Nitrogen oxides (air),SP_11008009_12_8,36.23386,-5.6635,189,Continuous data collection,2003-01-28T00:00:00Z,2015-11-23T00:00:00Z,SAM_11008009_12_8,SPP_11008009_12_8.1,Unknown,Chemiluminescence,,,http://cdr.eionet.europa.eu/es/eu/aqd/d/envxfin7q
Spain,ES.BDCA.AQD,CCAA Andalucía,"CONSEJERIA DE AGRICULTURA, GANADERIA, PESCA Y DESARROLLO SOSTENIBLE. DIRECCION GENERAL DE CALIDAD AMBIENTAL Y CAMBIO CLIMATICO (JUNTA DE ANDALUCIA)",UTC,CARTEYA (S9),ES1169A,Industrial,Suburban,Sulphur dioxide (air),SP_11033004_1_38,36.20879,-5.39138,51,Continuous data collection,1992-01-01T00:00:00Z,,SAM_11033004_1_38,SPP_11033004_1_38.1,Unknown,UV fluorescence,,,http://cdr.eionet.europa.eu/es/eu/aqd/d/envxfin7q
Spain,ES.BDCA.AQD,CCAA Com. Valenciana,"CONSELLERIA DE AGRICULTURA, MEDIO AMBIENTE, CAMBIO CLIMATICO Y DESARROLLO RURAL (VALENCIA)",UTC,ALCORA,ES1685A,Industrial,Urban,Nitrogen dioxide (air),SP_12005005_8_8,40.05194444,-0.18972222,160,Continuous data collection,2004-01-01T00:00:00Z,,SAM_12005005_8_8,SPP_12005005_8_8.1,Unknown,Chemiluminescence,,,http://cdr.eionet.europa.eu/es/eu/aqd/d/envxfin7q
Spain,ES.BDCA.AQD,CCAA Com. Valenciana,"CONSELLERIA DE AGRICULTURA, MEDIO AMBIENTE, CAMBIO CLIMATICO Y DESARROLLO RURAL (VALENCIA)",UTC,BENICASSIM,ES1687A,Industrial,Suburban,Nitrogen dioxide (air),SP_12028001_8_8,40.06222222,0.07277777,50,Continuous data collection,2004-01-01T00:00:00Z,,SAM_12028001_8_8,SPP_12028001_8_8.1,Unknown,Chemiluminescence,,,http://cdr.eionet.europa.eu/es/eu/aqd/d/envxfin7q
Spain,ES.BDCA.AQD,CCAA Com. Valenciana,"CONSELLERIA DE AGRICULTURA, MEDIO AMBIENTE, CAMBIO CLIMATICO Y DESARROLLO RURAL (VALENCIA)",UTC,CIRAT,ES1689A,Background,Rural,Benzo(k)fluoranthene in PM10 (aerosol),SP_12046001_96_M,40.05416666,-0.46833333,466,Continuous data collection,2010-06-01T00:00:00Z,,SAM_12046001_96_M,SPP_12046001_96_M.1,,,,Gas chromatography + mass spectrometry (GC-MS),http://cdr.eionet.europa.eu/es/eu/aqd/d/envxfin7q
Spain,ES.BDCA.AQD,CCAA Com. Valenciana,"CONSELLERIA DE AGRICULTURA, MEDIO AMBIENTE, CAMBIO CLIMATICO Y DESARROLLO RURAL (VALENCIA)",UTC,CIRAT,ES1689A,Background,Rural,Benzo(a)anthracene in PM10 (aerosol),SP_12046001_99_M,40.05416666,-0.46833333,466,Continuous data collection,2010-06-01T00:00:00Z,,SAM_12046001_99_M,SPP_12046001_99_M.1,,,,Gas chromatography + mass spectrometry (GC-MS),http://cdr.eionet.europa.eu/es/eu/aqd/d/envxfin7q
Spain,ES.BDCA.AQD,CCAA Cast. la Mancha,"CONSEJERÍA DE AGRICULTURA, MEDIO AMBIENTE Y DESARROLLO RURAL. VICECONSEJERÍA DE MEDIO AMBIENTE (CASTILLA LA MANCHA)",UTC,CAMPO DE FÚTBOL,ES1279A,Industrial,Suburban,Cadmium in PM10 (aerosol),SP_13071015_28_M,38.68198,-4.08858,685,Continuous data collection,2010-01-01T00:00:00Z,,SAM_13071015_28_M,SPP_13071015_28_M.2,,,,"Other, please specify",http://cdr.eionet.europa.eu/es/eu/aqd/d/envxfin7q
Spain,ES.BDCA.AQD,CCAA Cast. la Mancha,"CONSEJERÍA DE AGRICULTURA, MEDIO AMBIENTE Y DESARROLLO RURAL. VICECONSEJERÍA DE MEDIO AMBIENTE (CASTILLA LA MANCHA)",UTC,CAMPO DE FÚTBOL,ES1279A,Industrial,Suburban,Benzene (air),SP_13071015_30_59,38.68198,-4.08858,685,Continuous data collection,2018-11-29T00:00:00Z,,SAM_13071015_30_59,SPP_13071015_30_59.2,AMA GC5000 BTX Type PID,Gas chromatography followed by photo ionization detection (GC-PID),,,http://cdr.eionet.europa.eu/es/eu/aqd/d/envxfin7q
Spain,ES.BDCA.AQD,CCAA Cast. la Mancha,"CONSEJERÍA DE AGRICULTURA, MEDIO AMBIENTE Y DESARROLLO RURAL. VICECONSEJERÍA DE MEDIO AMBIENTE (CASTILLA LA MANCHA)",UTC,CAMPO DE FÚTBOL,ES1279A,Industrial,Suburban,Carbon monoxide (air),SP_13071015_6_48,38.68198,-4.08858,685,Continuous data collection,2003-05-31T00:00:00Z,2013-09-20T00:00:00Z,SAM_13071015_6_48,SPP_13071015_6_48.1,Teledyne API 300E gas filter correlation CO analyser,Non-dispersive infrared spectroscopy (NDIR),,,http://cdr.eionet.europa.eu/es/eu/aqd/d/envxfin7q
Spain,ES.BDCA.AQD,CCAA Andalucía,"CONSEJERIA DE AGRICULTURA, GANADERIA, PESCA Y DESARROLLO SOSTENIBLE. DIRECCION GENERAL DE CALIDAD AMBIENTAL Y CAMBIO CLIMATICO (JUNTA DE ANDALUCIA)",UTC,LEPANTO,ES1799A,Background,Urban,Particulate matter < 10 µm (aerosol),SP_14021007_10_49,37.89261,-4.76234,119,Continuous data collection,2018-12-20T00:00:00Z,,SAM_14021007_10_49,SPP_14021007_10_49.2,Thermo 5014i Beta Continuous Ambient Particulate Monitor,Beta ray attenuation,,,http://cdr.eionet.europa.eu/es/eu/aqd/d/envxfin7q
Spain,ES.BDCA.AQD,CCAA Andalucía,"CONSEJERIA DE AGRICULTURA, GANADERIA, PESCA Y DESARROLLO SOSTENIBLE. DIRECCION GENERAL DE CALIDAD AMBIENTAL Y CAMBIO CLIMATICO (JUNTA DE ANDALUCIA)",UTC,LEPANTO,ES1799A,Background,Urban,Benzo(k)fluoranthene in PM10 (aerosol),SP_14021007_96_M,37.89261,-4.76234,119,Continuous data collection,2008-01-01T00:00:00Z,2008-12-31T00:00:00Z,SAM_14021007_96_M,SPP_14021007_96_M.1,,,,Gas chromatography + mass spectrometry (GC-MS),http://cdr.eionet.europa.eu/es/eu/aqd/d/envxfin7q
Spain,ES.BDCA.AQD,CCAA Andalucía,"CONSEJERIA DE AGRICULTURA, GANADERIA, PESCA Y DESARROLLO SOSTENIBLE. DIRECCION GENERAL DE CALIDAD AMBIENTAL Y CAMBIO CLIMATICO (JUNTA DE ANDALUCIA)",UTC,VILLAHARTA,ES1971A,Industrial,Suburban,Ethyl benzene (air),SP_14068001_35_I,38.13793,-4.90397,571,Continuous data collection,2011-01-01T00:00:00Z,,SAM_14068001_35_I,SPP_14068001_35_I.1,,,,Gas chromatography + mass spectrometry (GC-MS),http://cdr.eionet.europa.eu/es/eu/aqd/d/envxfin7q
Spain,ES.BDCA.AQD,CCAA Galicia,SUBDIRECCION XERAL DE METEOROLOXIA E CAMBIO CLIMATICO (XUNTA DE GALICIA),UTC,CENTRO CIVICO,ES1907A,Industrial,Suburban,Particulate matter < 2.5 µm (aerosol),SP_15005012_9_47,43.3023,-8.506,100,Continuous data collection,2013-01-01T00:00:00Z,,SAM_15005012_9_47,SPP_15005012_9_47.1,TEOM 1405D,Tapered Element Oscillating Microbalance (TEOM),,,http://cdr.eionet.europa.eu/es/eu/aqd/d/envxfin7q
Spain,ES.BDCA.AQD,CCAA Galicia,SUBDIRECCION XERAL DE METEOROLOXIA E CAMBIO CLIMATICO (XUNTA DE GALICIA),UTC,ARZÚA,ES2013A,Background,Urban,Particulate matter < 10 µm (aerosol),SP_15006001_10_49,42.9329,-8.1623,390,Continuous data collection,2010-12-31T00:00:00Z,2013-07-26T00:00:00Z,SAM_15006001_10_49,SPP_15006001_10_49.1,MetOne BAM-1020,Beta ray attenuation,,,http://cdr.eionet.europa.eu/es/eu/aqd/d/envxfin7q
Spain,ES.BDCA.AQD,CCAA Galicia,SUBDIRECCION XERAL DE METEOROLOXIA E CAMBIO CLIMATICO (XUNTA DE GALICIA),UTC,LA GRELA,ES1798A,Industrial,Urban,Benzo(a)anthracene in PM10 (aerosol),SP_15030021_99_M,43.3542,-8.4249,65,Continuous data collection,2018-01-01T00:00:00Z,,SAM_15030021_99_M,SPP_15030021_99_M.1,,,,High performance liquid chromatography - fluorescence detection (HPLC-FLD),http://cdr.eionet.europa.eu/es/eu/aqd/d/envxfin7q
Spain,ES.BDCA.AQD,CCAA Andalucía,"CONSEJERIA DE AGRICULTURA, GANADERIA, PESCA Y DESARROLLO SOSTENIBLE. DIRECCION GENERAL DE CALIDAD AMBIENTAL Y CAMBIO CLIMATICO (JUNTA DE ANDALUCIA)",UTC,PALACIO CONGRESOS,ES1924A,Background,Urban,Cadmium in PM10 (aerosol),SP_18087010_28_M,37.16568,-3.6001,666,Continuous data collection,2012-01-01T00:00:00Z,,SAM_18087010_28_M,SPP_18087010_28_M.1,,,,Inductive coupled plasma atomic emission spectrometry (ICP-AES),http://cdr.eionet.europa.eu/es/eu/aqd/d/envxfin7q
Spain,ES.BDCA.AQD,EMEP/VAG/CAMP,AGENCIA ESTATAL METEOROLOGÍA,UTC,VÍZNAR,ES0007R,Background,Rural,Lead (precip+dry_dep),SP_18189999_321_I,37.23722,-3.53417,1230,Continuous data collection,2007-01-01T00:00:00Z,,SAM_18189999_321_I,SPP_18189999_321_I.1,,,,Inductive coupled plasma mass spectrometryscopy (ICP-MS),http://cdr.eionet.europa.eu/es/eu/aqd/d/envxfin7q
Spain,ES.BDCA.AQD,CCAA País Vasco,"DEPARTAMENTO DE MEDIO AMBIENTE, POLITICA TERRITORIAL Y VIVIENDA - GOBIERNO VASCO",UTC,AVENIDA TOLOSA,ES1697A,Traffic,Urban,Lead in PM10 (aerosol),SP_20069005_19_M,43.3094,-2.0109,3,Continuous data collection,2010-01-01T00:00:00Z,,SAM_20069005_19_M,SPP_20069005_19_M.1,,,,Inductive coupled plasma mass spectrometryscopy (ICP-MS),http://cdr.eionet.europa.eu/es/eu/aqd/d/envxfin7q
Spain,ES.BDCA.AQD,CCAA País Vasco,"DEPARTAMENTO DE MEDIO AMBIENTE, POLITICA TERRITORIAL Y VIVIENDA - GOBIERNO VASCO",UTC,AVENIDA TOLOSA,ES1697A,Traffic,Urban,Sulphur dioxide (air),SP_20069005_1_38,43.3094,-2.0109,3,Continuous data collection,2004-02-24T00:00:00Z,,SAM_20069005_1_38,SPP_20069005_1_38.1,Thermo model 43i SO2 analyser,UV fluorescence,,,http://cdr.eionet.europa.eu/es/eu/aqd/d/envxfin7q
Spain,ES.BDCA.AQD,CCAA País Vasco,"DEPARTAMENTO DE MEDIO AMBIENTE, POLITICA TERRITORIAL Y VIVIENDA - GOBIERNO VASCO",UTC,AVENIDA TOLOSA,ES1697A,Traffic,Urban,Benzo(k)fluoranthene in PM10 (aerosol),SP_20069005_96_M,43.3094,-2.0109,3,Continuous data collection,2009-01-01T00:00:00Z,,SAM_20069005_96_M,SPP_20069005_96_M.1,,,,Gas chromatography + mass spectrometry (GC-MS),http://cdr.eionet.europa.eu/es/eu/aqd/d/envxfin7q
Spain,ES.BDCA.AQD,CCAA País Vasco,"DEPARTAMENTO DE MEDIO AMBIENTE, POLITICA TERRITORIAL Y VIVIENDA - GOBIERNO VASCO",UTC,EASO,ES2101A,Traffic,Urban,Particulate matter < 10 µm (aerosol),SP_20069006_10_47,43.31217,-1.98083,6,Continuous data collection,2020-01-01T00:00:00Z,,SAM_20069006_10_47,SPP_20069006_10_47.1,TEOM 1400,Tapered Element Oscillating Microbalance (TEOM),,,http://cdr.eionet.europa.eu/es/eu/aqd/d/envxfin7q
Spain,ES.BDCA.AQD,CCAA País Vasco,"DEPARTAMENTO DE MEDIO AMBIENTE, POLITICA TERRITORIAL Y VIVIENDA - GOBIERNO VASCO",UTC,TOLOSA,ES1498A,Traffic,Urban,Nitrogen monoxide (air),SP_20071001_7_8,43.1308,-2.078,90,Continuous data collection,1998-01-01T00:00:00Z,,SAM_20071001_7_8,SPP_20071001_7_8.1,Unknown,Chemiluminescence,,,http://cdr.eionet.europa.eu/es/eu/aqd/d/envxfin7q
Spain,ES.BDCA.AQD,CCAA Andalucía,"CONSEJERIA DE AGRICULTURA, GANADERIA, PESCA Y DESARROLLO SOSTENIBLE. DIRECCION GENERAL DE CALIDAD AMBIENTAL Y CAMBIO CLIMATICO (JUNTA DE ANDALUCIA)",UTC,POZO DULCE,ES1340A,Traffic,Urban,Nitrogen monoxide (air),SP_21041016_7_8,37.25336,-6.93514,18,Continuous data collection,1993-10-01T00:00:00Z,,SAM_21041016_7_8,SPP_21041016_7_8.1,Unknown,Chemiluminescence,,,http://cdr.eionet.europa.eu/es/eu/aqd/d/envxfin7q
Spain,ES.BDCA.AQD,CCAA Andalucía,"CONSEJERIA DE AGRICULTURA, GANADERIA, PESCA Y DESARROLLO SOSTENIBLE. DIRECCION GENERAL DE CALIDAD AMBIENTAL Y CAMBIO CLIMATICO (JUNTA DE ANDALUCIA)",UTC,CAMPUS DEL CARMEN,ES1658A,Industrial,Urban,Ozone (air),SP_21041017_14_6,37.27148,-6.92462,48,Continuous data collection,2003-05-22T00:00:00Z,,SAM_21041017_14_6,SPP_21041017_14_6.1,Unknown,Ultraviolet (UV) photometry,,,http://cdr.eionet.europa.eu/es/eu/aqd/d/envxfin7q
Spain,ES.BDCA.AQD,CCAA Andalucía,"CONSEJERIA DE AGRICULTURA, GANADERIA, PESCA Y DESARROLLO SOSTENIBLE. DIRECCION GENERAL DE CALIDAD AMBIENTAL Y CAMBIO CLIMATICO (JUNTA DE ANDALUCIA)",UTC,MOGUER,ES1258A,Industrial,Suburban,Benzo(b)fluoranthene in PM10 (aerosol),SP_21050001_98_M,37.28156,-6.83384,52,Continuous data collection,2008-01-01T00:00:00Z,2008-12-31T00:00:00Z,SAM_21050001_98_M,SPP_21050001_98_M.1,,,,Gas chromatography + mass spectrometry (GC-MS),http://cdr.eionet.europa.eu/es/eu/aqd/d/envxfin7q
Spain,ES.BDCA.AQD,CCAA Andalucía,"CONSEJERIA DE AGRICULTURA, GANADERIA, PESCA Y DESARROLLO SOSTENIBLE. DIRECCION GENERAL DE CALIDAD AMBIENTAL Y CAMBIO CLIMATICO (JUNTA DE ANDALUCIA)",UTC,PALOS,ES1067A,Industrial,Suburban,Sulphur dioxide (air),SP_21055005_1_38,37.21925,-6.88858,28,Continuous data collection,2018-12-26T00:00:00Z,,SAM_21055005_1_38,SPP_21055005_1_38.2,Thermo model 43i SO2 analyser,UV fluorescence,,,http://cdr.eionet.europa.eu/es/eu/aqd/d/envxfin7q
Spain,ES.BDCA.AQD,CCAA Cataluña,DIRECCIO GENERAL DE QUALITAT AMBIENTAL. SERVICIO DE VIGILANCIA Y CONTROL DEL AIRE (CATALUNA),UTC,Badalona (Mont-roig - Ausiàs March),ES1892A,Background,Urban,Carbon monoxide (air),SP_08015021_6_48,41.443983561,2.237875306,7,Continuous data collection,2008-12-01T00:00:00Z,2014-01-01T00:00:00Z,SAM_08015021_6_48,SPP_08015021_6_48.1,Unknown,Non-dispersive infrared spectroscopy (NDIR),,,http://cdr.eionet.europa.eu/es/eu/aqd/d/envxfin7q
Spain,ES.BDCA.AQD,CCAA Cataluña,DIRECCIO GENERAL DE QUALITAT AMBIENTAL. SERVICIO DE VIGILANCIA Y CONTROL DEL AIRE (CATALUNA),UTC,Barcelona (pl. de la Universitat),ES0559A,Traffic,Urban,Lead in PM10 (aerosol),SP_08019028_19_M,41.387423958,2.164918317,24,Continuous data collection,2012-01-01T00:00:00Z,2012-12-31T00:00:00Z,SAM_08019028_19_M,SPP_08019028_19_M.3,,,,Inductive coupled plasma atomic emission spectrometry (ICP-AES),http://cdr.eionet.europa.eu/es/eu/aqd/d/envxfin7q
Spain,ES.BDCA.AQD,CCAA Cataluña,DIRECCIO GENERAL DE QUALITAT AMBIENTAL. SERVICIO DE VIGILANCIA Y CONTROL DEL AIRE (CATALUNA),UTC,Barcelona (pl. de la Universitat),ES0559A,Traffic,Urban,Benzo(a)pyrene in PM10 (aerosol),SP_08019028_27_M,41.387423958,2.164918317,24,Continuous data collection,2010-01-01T00:00:00Z,,SAM_08019028_27_M,SPP_08019028_27_M.2,,,,High performance liquid chromatography - fluorescence detection (HPLC-FLD),http://cdr.eionet.europa.eu/es/eu/aqd/d/envxfin7q
Spain,ES.BDCA.AQD,CCAA Cataluña,DIRECCIO GENERAL DE QUALITAT AMBIENTAL. SERVICIO DE VIGILANCIA Y CONTROL DEL AIRE (CATALUNA),UTC,Barcelona (IES Verdaguer),ES1900A,Background,Urban,Particulate matter < 10 µm (aerosol),SP_08019055_10_M,41.387237826,2.186736695,7,Continuous data collection,2009-01-01T00:00:00Z,,SAM_08019055_10_M,SPP_08019055_10_M.1,,,,Gravimetric analysis,http://cdr.eionet.europa.eu/es/eu/aqd/d/envxfin7q
Spain,ES.BDCA.AQD,CCAA Cataluña,DIRECCIO GENERAL DE QUALITAT AMBIENTAL. SERVICIO DE VIGILANCIA Y CONTROL DEL AIRE (CATALUNA),UTC,Barcelona (Palau Reial),ES1992A,Background,Urban,Nitrogen monoxide (air),SP_08019057_7_8,41.38748464,2.115149666,81,Continuous data collection,2011-03-17T00:00:00Z,,SAM_08019057_7_8,SPP_08019057_7_8.1,Thermo model 42 NO/Nox analyser,Chemiluminescence,,,http://cdr.eionet.europa.eu/es/eu/aqd/d/envxfin7q
Spain,ES.BDCA.AQD,CCAA Cataluña,DIRECCIO GENERAL DE QUALITAT AMBIENTAL. SERVICIO DE VIGILANCIA Y CONTROL DEL AIRE (CATALUNA),UTC,Igualada (la Masuca),ES1135A,Industrial,Suburban,Particulate matter < 10 µm (aerosol),SP_08102005_10_M,41.5776,1.6259,284,Continuous data collection,1991-06-01T00:00:00Z,2018-12-31T00:00:00Z,SAM_08102005_10_M,SPP_08102005_10_M.1,,,,Gravimetric analysis,http://cdr.eionet.europa.eu/es/eu/aqd/d/envxfin7q
Spain,ES.BDCA.AQD,CCAA Cataluña,DIRECCIO GENERAL DE QUALITAT AMBIENTAL. SERVICIO DE VIGILANCIA Y CONTROL DEL AIRE (CATALUNA),UTC,Igualada (la Masuca),ES1135A,Industrial,Suburban,Nitrogen oxides (air),SP_08102005_12_8,41.5776,1.6259,284,Continuous data collection,1991-06-01T00:00:00Z,,SAM_08102005_12_8,SPP_08102005_12_8.2,Unknown,Chemiluminescence,,,http://cdr.eionet.europa.eu/es/eu/aqd/d/envxfin7q
Spain,ES.BDCA.AQD,CCAA Cataluña,DIRECCIO GENERAL DE QUALITAT AMBIENTAL. SERVICIO DE VIGILANCIA Y CONTROL DEL AIRE (CATALUNA),UTC,Igualada (la Masuca),ES1135A,Industrial,Suburban,Nitrogen monoxide (air),SP_08102005_7_8,41.5776,1.6259,284,Continuous data collection,1991-06-01T00:00:00Z,,SAM_08102005_7_8,SPP_08102005_7_8.1,Unknown,Chemiluminescence,,,http://cdr.eionet.europa.eu/es/eu/aqd/d/envxfin7q
Spain,ES.BDCA.AQD,CCAA Cataluña,DIRECCIO GENERAL DE QUALITAT AMBIENTAL. SERVICIO DE VIGILANCIA Y CONTROL DEL AIRE (CATALUNA),UTC,Mataró (passeig dels Molins),ES1816A,Background,Urban,Carbon monoxide (air),SP_08121013_6_48,41.547159712,2.443253787,40,Continuous data collection,2005-12-31T00:00:00Z,,SAM_08121013_6_48,SPP_08121013_6_48.1,Unknown,Non-dispersive infrared spectroscopy (NDIR),,,http://cdr.eionet.europa.eu/es/eu/aqd/d/envxfin7q
Spain,ES.BDCA.AQD,CCAA Cataluña,DIRECCIO GENERAL DE QUALITAT AMBIENTAL. SERVICIO DE VIGILANCIA Y CONTROL DEL AIRE (CATALUNA),UTC,Sant Cugat del Vallès (parc de Sant Francesc),ES1231A,Background,Urban,Nitrogen monoxide (air),SP_08205002_7_8,41.476769365,2.088977264,113,Continuous data collection,1992-05-01T00:00:00Z,,SAM_08205002_7_8,SPP_08205002_7_8.1,Unknown,Chemiluminescence,,,http://cdr.eionet.europa.eu/es/eu/aqd/d/envxfin7q
Spain,ES.BDCA.AQD,CCAA Cataluña,DIRECCIO GENERAL DE QUALITAT AMBIENTAL. SERVICIO DE VIGILANCIA Y CONTROL DEL AIRE (CATALUNA),UTC,Sant Feliu de Llobregat (CEIP Martí i Pol),ES1964A,Industrial,Suburban,Nitrogen oxides (air),SP_08211004_12_8,41.386638989,2.057392493,81,Continuous data collection,2013-01-01T00:00:00Z,,SAM_08211004_12_8,SPP_08211004_12_8.1,Unknown,Chemiluminescence,,,http://cdr.eionet.europa.eu/es/eu/aqd/d/envxfin7q
Spain,ES.BDCA.AQD,CCAA Cataluña,DIRECCIO GENERAL DE QUALITAT AMBIENTAL. SERVICIO DE VIGILANCIA Y CONTROL DEL AIRE (CATALUNA),UTC,Santa Margarida i els Monjos (la Ràpita),ES1899A,Industrial,Rural,Nitrogen oxides (air),SP_08251003_12_8,41.308402497,1.647339954,155,Continuous data collection,2009-12-31T00:00:00Z,,SAM_08251003_12_8,SPP_08251003_12_8.1,Unknown,Chemiluminescence,,,http://cdr.eionet.europa.eu/es/eu/aqd/d/envxfin7q
Spain,ES.BDCA.AQD,CCAA Cataluña,DIRECCIO GENERAL DE QUALITAT AMBIENTAL. SERVICIO DE VIGILANCIA Y CONTROL DEL AIRE (CATALUNA),UTC,Santa Perpètua de Mogoda (Onze de Setembre),ES1817A,Traffic,Suburban,Particulate matter < 10 µm (aerosol),SP_08260010_10_47,41.526705931,2.183795315,84,Continuous data collection,2016-01-01T00:00:00Z,,SAM_08260010_10_47,SPP_08260010_10_47.1,TEOM 1400A,Tapered Element Oscillating Microbalance (TEOM),,,http://cdr.eionet.europa.eu/es/eu/aqd/d/envxfin7q
Spain,ES.BDCA.AQD,CCAA Cataluña,DIRECCIO GENERAL DE QUALITAT AMBIENTAL. SERVICIO DE VIGILANCIA Y CONTROL DEL AIRE (CATALUNA),UTC,Viladecans (Atrium),ES1903A,Background,Suburban,Benzene (air),SP_08301004_30_M,41.313475208,2.013824628,14,Continuous data collection,2009-01-01T00:00:00Z,,SAM_08301004_30_M,SPP_08301004_30_M.1,,,,Gas chromatography + mass spectrometry (GC-MS),http://cdr.eionet.europa.eu/es/eu/aqd/d/envxfin7q
Spain,ES.BDCA.AQD,CCAA Castilla y León,DIRECCIÓN GENERAL DE CALIDAD Y SOSTENIBILIDAD AMBIENTAL. JUNTA DE CASTILLA Y LEÓN,UTC,BURGOS 1,ES1160A,Traffic,Urban,Toluene (air),SP_09059003_20_59,42.35083,-3.67556,929,Continuous data collection,2013-01-01T00:00:00Z,,SAM_09059003_20_59,SPP_09059003_20_59.1,Unknown,Gas chromatography followed by mass spectrometry (GC-MS),,,http://cdr.eionet.europa.eu/es/eu/aqd/d/envxfin7q
Spain,ES.BDCA.AQD,CCAA Castilla y León,DIRECCIÓN GENERAL DE CALIDAD Y SOSTENIBILIDAD AMBIENTAL. JUNTA DE CASTILLA Y LEÓN,UTC,BURGOS 4,ES1443A,Background,Urban,Sulphur dioxide (air),SP_09059006_1_38,42.33611,-3.63611,929,Continuous data collection,1996-01-01T00:00:00Z,,SAM_09059006_1_38,SPP_09059006_1_38.1,Unknown,UV fluorescence,,,http://cdr.eionet.europa.eu/es/eu/aqd/d/envxfin7q
Spain,ES.BDCA.AQD,CCAA Extremadura,"CONSEJERIA DE MEDIO AMBIENTE Y RURAL, POLITICAS AGRARIAS Y TERRITORIO (JUNTA DE EXTREMADURA)",UTC,CÁCERES,ES1615A,Background,Urban,Toluene (air),SP_10037001_20_59,39.47278,-6.36028,389,Continuous data collection,2001-11-01T00:00:00Z,,SAM_10037001_20_59,SPP_10037001_20_59.1,SRI 8610,Gas chromatography followed by mass spectrometry (GC-MS),,,http://cdr.eionet.europa.eu/es/eu/aqd/d/envxfin7q
Spain,ES.BDCA.AQD,CCAA Extremadura,"CONSEJERIA DE MEDIO AMBIENTE Y RURAL, POLITICAS AGRARIAS Y TERRITORIO (JUNTA DE EXTREMADURA)",UTC,CÁCERES,ES1615A,Background,Urban,Particulate matter < 2.5 µm (aerosol),SP_10037001_9_46,39.47278,-6.36028,389,Continuous data collection,2001-11-01T00:00:00Z,,SAM_10037001_9_46,SPP_10037001_9_46.1,"GRIMM model EDM 107 for PM10, PM2.5, PM1 and TC",Light scattering,,,http://cdr.eionet.europa.eu/es/eu/aqd/d/envxfin7q
Spain,ES.BDCA.AQD,CCAA Extremadura,"CONSEJERIA DE MEDIO AMBIENTE Y RURAL, POLITICAS AGRARIAS Y TERRITORIO (JUNTA DE EXTREMADURA)",UTC,MONFRAGÜE,ES1616A,Background,Rural,Benzene (air),SP_10182001_30_59,39.84917,-5.93972,376,Continuous data collection,2004-09-01T00:00:00Z,,SAM_10182001_30_59,SPP_10182001_30_59.1,Unknown,Gas chromatography followed by mass spectrometry (GC-MS),,,http://cdr.eionet.europa.eu/es/eu/aqd/d/envxfin7q
Spain,ES.BDCA.AQD,CCAA Extremadura,"CONSEJERIA DE MEDIO AMBIENTE Y RURAL, POLITICAS AGRARIAS Y TERRITORIO (JUNTA DE EXTREMADURA)",UTC,MONFRAGÜE,ES1616A,Background,Rural,Particulate matter < 2.5 µm (aerosol),SP_10182001_9_M,39.84917,-5.93972,376,Continuous data collection,2013-01-01T00:00:00Z,,SAM_10182001_9_M,SPP_10182001_9_M.1,,,,Gravimetric analysis,http://cdr.eionet.europa.eu/es/eu/aqd/d/envxfin7q
Spain,ES.BDCA.AQD,CCAA Andalucía,"CONSEJERIA DE AGRICULTURA, GANADERIA, PESCA Y DESARROLLO SOSTENIBLE. DIRECCION GENERAL DE CALIDAD AMBIENTAL Y CAMBIO CLIMATICO (JUNTA DE ANDALUCIA)",UTC,E4:RINCONCILLO,ES1637A,Industrial,Urban,Nitrogen dioxide (air),SP_11004006_8_8,36.16174,-5.44255,1,Continuous data collection,2015-12-02T00:00:00Z,,SAM_11004006_8_8,SPP_11004006_8_8.2,Unknown,Chemiluminescence,,,http://cdr.eionet.europa.eu/es/eu/aqd/d/envxfin7q
Spain,ES.BDCA.AQD,CCAA Andalucía,"CONSEJERIA DE AGRICULTURA, GANADERIA, PESCA Y DESARROLLO SOSTENIBLE. DIRECCION GENERAL DE CALIDAD AMBIENTAL Y CAMBIO CLIMATICO (JUNTA DE ANDALUCIA)",UTC,LOS BARRIOS,ES0712A,Industrial,Suburban,Nitrogen monoxide (air),SP_11008001_7_8,36.17538,-5.48083,45,Continuous data collection,1989-01-01T00:00:00Z,2018-12-18T00:00:00Z,SAM_11008001_7_8,SPP_11008001_7_8.1,Unknown,Chemiluminescence,,,http://cdr.eionet.europa.eu/es/eu/aqd/d/envxfin7q
Spain,ES.BDCA.AQD,CCAA Andalucía,"CONSEJERIA DE AGRICULTURA, GANADERIA, PESCA Y DESARROLLO SOSTENIBLE. DIRECCION GENERAL DE CALIDAD AMBIENTAL Y CAMBIO CLIMATICO (JUNTA DE ANDALUCIA)",UTC,COLEGIO (S1),ES0629A,Industrial,Urban,Particulate matter < 10 µm (aerosol),SP_11008003_10_49,36.18562,-5.48893,30,Continuous data collection,2003-03-14T00:00:00Z,,SAM_11008003_10_49,SPP_11008003_10_49.1,Unknown,Beta ray attenuation,,,http://cdr.eionet.europa.eu/es/eu/aqd/d/envxfin7q
Spain,ES.BDCA.AQD,CCAA Andalucía,"CONSEJERIA DE AGRICULTURA, GANADERIA, PESCA Y DESARROLLO SOSTENIBLE. DIRECCION GENERAL DE CALIDAD AMBIENTAL Y CAMBIO CLIMATICO (JUNTA DE ANDALUCIA)",UTC,COLEGIO (S1),ES0629A,Industrial,Urban,Sulphur dioxide (air),SP_11008003_1_38,36.18562,-5.48893,30,Continuous data collection,1985-01-01T00:00:00Z,,SAM_11008003_1_38,SPP_11008003_1_38.1,Unknown,UV fluorescence,,,http://cdr.eionet.europa.eu/es/eu/aqd/d/envxfin7q
Spain,ES.BDCA.AQD,CCAA Andalucía,"CONSEJERIA DE AGRICULTURA, GANADERIA, PESCA Y DESARROLLO SOSTENIBLE. DIRECCION GENERAL DE CALIDAD AMBIENTAL Y CAMBIO CLIMATICO (JUNTA DE ANDALUCIA)",UTC,TORREARENILLA,ES0787A,Industrial,Suburban,Nitrogen dioxide (air),SP_21055007_8_8,37.19033,-6.90453,13,Continuous data collection,1987-01-01T00:00:00Z,,SAM_21055007_8_8,SPP_21055007_8_8.1,Unknown,Chemiluminescence,,,http://cdr.eionet.europa.eu/es/eu/aqd/d/envxfin7q
Spain,ES.BDCA.AQD,CCAA Andalucía,"CONSEJERIA DE AGRICULTURA, GANADERIA, PESCA Y DESARROLLO SOSTENIBLE. DIRECCION GENERAL DE CALIDAD AMBIENTAL Y CAMBIO CLIMATICO (JUNTA DE ANDALUCIA)",UTC,BAILÉN,ES1253A,Industrial,Urban,Particulate matter < 10 µm (aerosol),SP_23010002_10_49,38.09293,-3.78392,368,Continuous data collection,2018-12-13T00:00:00Z,,SAM_23010002_10_49,SPP_23010002_10_49.2,Thermo 5014i Beta Continuous Ambient Particulate Monitor,Beta ray attenuation,,,http://cdr.eionet.europa.eu/es/eu/aqd/d/envxfin7q
Spain,ES.BDCA.AQD,CCAA Andalucía,"CONSEJERIA DE AGRICULTURA, GANADERIA, PESCA Y DESARROLLO SOSTENIBLE. DIRECCION GENERAL DE CALIDAD AMBIENTAL Y CAMBIO CLIMATICO (JUNTA DE ANDALUCIA)",UTC,RONDA DEL VALLE,ES1656A,Background,Urban,Particulate matter < 10 µm (aerosol),SP_23050003_10_49,37.78255,-3.78157,480,Continuous data collection,2018-12-12T00:00:00Z,,SAM_23050003_10_49,SPP_23050003_10_49.2,Thermo 5014i Beta Continuous Ambient Particulate Monitor,Beta ray attenuation,,,http://cdr.eionet.europa.eu/es/eu/aqd/d/envxfin7q
Spain,ES.BDCA.AQD,CCAA Cataluña,DIRECCIO GENERAL DE QUALITAT AMBIENTAL. SERVICIO DE VIGILANCIA Y CONTROL DEL AIRE (CATALUNA),UTC,Bellver de Cerdanya (CEIP Mare de Déu de Talló),ES1348A,Background,Rural,Cadmium in PM10 (aerosol),SP_25051001_28_M,42.36831811,1.776783258,1060,Continuous data collection,2006-01-01T00:00:00Z,,SAM_25051001_28_M,SPP_25051001_28_M.1,,,,Inductive coupled plasma mass spectrometryscopy (ICP-MS),http://cdr.eionet.europa.eu/es/eu/aqd/d/envxfin7q
Spain,ES.BDCA.AQD,CCAA Cataluña,DIRECCIO GENERAL DE QUALITAT AMBIENTAL. SERVICIO DE VIGILANCIA Y CONTROL DEL AIRE (CATALUNA),UTC,Lleida (Irurita - Pius XII),ES1225A,Traffic,Urban,Benzo(a)pyrene in PM10 (aerosol),SP_25120001_27_M,41.615794867,0.615725897,220,Continuous data collection,2010-01-01T00:00:00Z,,SAM_25120001_27_M,SPP_25120001_27_M.2,,,,High performance liquid chromatography - fluorescence detection (HPLC-FLD),http://cdr.eionet.europa.eu/es/eu/aqd/d/envxfin7q
Spain,ES.BDCA.AQD,CCAA Cataluña,DIRECCIO GENERAL DE QUALITAT AMBIENTAL. SERVICIO DE VIGILANCIA Y CONTROL DEL AIRE (CATALUNA),UTC,Lleida (Irurita - Pius XII),ES1225A,Traffic,Urban,Benzene (air),SP_25120001_30_M,41.615794867,0.615725897,220,Continuous data collection,2007-01-01T00:00:00Z,,SAM_25120001_30_M,SPP_25120001_30_M.1,,,,GC-MS type,http://cdr.eionet.europa.eu/es/eu/aqd/d/envxfin7q
Spain,ES.BDCA.AQD,CCAA Cataluña,DIRECCIO GENERAL DE QUALITAT AMBIENTAL. SERVICIO DE VIGILANCIA Y CONTROL DEL AIRE (CATALUNA),UTC,Montsec (OAM),ES1982A,Background,Rural,Particulate matter < 2.5 µm (aerosol),SP_25196001_9_46,42.051340687,0.729555647,1570,Continuous data collection,2013-01-01T00:00:00Z,,SAM_25196001_9_46,SPP_25196001_9_46.1,Unknown,Light scattering,,,http://cdr.eionet.europa.eu/es/eu/aqd/d/envxfin7q
Spain,ES.BDCA.AQD,EMEP/VAG/CAMP,AGENCIA ESTATAL METEOROLOGÍA,UTC,ELS TORMS,ES0014R,Background,Rural,chloride in PM2.5 (aerosol),SP_25224999_129_M,41.39389,0.73472,470,Continuous data collection,2012-01-01T00:00:00Z,,SAM_25224999_129_M,SPP_25224999_129_M.1,,,,Ion chromatography,http://cdr.eionet.europa.eu/es/eu/aqd/d/envxfin7q
Spain,ES.BDCA.AQD,EMEP/VAG/CAMP,AGENCIA ESTATAL METEOROLOGÍA,UTC,ELS TORMS,ES0014R,Background,Rural,sodium in PM2.5 (aerosol),SP_25224999_130_M,41.39389,0.73472,470,Continuous data collection,2012-01-01T00:00:00Z,2014-12-31T00:00:00Z,SAM_25224999_130_M,SPP_25224999_130_M.1,,,,Atomic absorption spectrometry (AAS),http://cdr.eionet.europa.eu/es/eu/aqd/d/envxfin7q
Spain,ES.BDCA.AQD,EMEP/VAG/CAMP,AGENCIA ESTATAL METEOROLOGÍA,UTC,ELS TORMS,ES0014R,Background,Rural,Arsenic (precip+dry_dep),SP_25224999_302_I,41.39389,0.73472,470,Continuous data collection,2010-08-02T00:00:00Z,,SAM_25224999_302_I,SPP_25224999_302_I.2,,,,Inductive coupled plasma mass spectrometryscopy (ICP-MS),http://cdr.eionet.europa.eu/es/eu/aqd/d/envxfin7q
Spain,ES.BDCA.AQD,CCAA La Rioja,"CONSEJERIA DE AGRICULTURA, GANADERÍA Y MEDIO AMBIENTE - DIRECCIÓN GENERAL DE CALIDAD AMBIENTAL Y AGUA (LA RIOJA)",UTC,ARRÚBAL,ES1779A,Industrial,Rural,Nitrogen dioxide (air),SP_26019001_8_8,42.44,-2.239,336,Continuous data collection,2004-10-01T00:00:00Z,,SAM_26019001_8_8,SPP_26019001_8_8.1,Unknown,Chemiluminescence,,,http://cdr.eionet.europa.eu/es/eu/aqd/d/envxfin7q
Spain,ES.BDCA.AQD,CCAA La Rioja,"CONSEJERIA DE AGRICULTURA, GANADERÍA Y MEDIO AMBIENTE - DIRECCIÓN GENERAL DE CALIDAD AMBIENTAL Y AGUA (LA RIOJA)",UTC,LA CIGÜEÑA,ES1602A,Background,Urban,"m,p-Xylene (air)",SP_26089001_431_59,42.464,-2.428,385,Continuous data collection,2012-01-01T00:00:00Z,,SAM_26089001_431_59,SPP_26089001_431_59.1,Unknown,Gas chromatography followed by mass spectrometry (GC-MS),,,http://cdr.eionet.europa.eu/es/eu/aqd/d/envxfin7q
Spain,ES.BDCA.AQD,CCAA La Rioja,"CONSEJERIA DE AGRICULTURA, GANADERÍA Y MEDIO AMBIENTE - DIRECCIÓN GENERAL DE CALIDAD AMBIENTAL Y AGUA (LA RIOJA)",UTC,PRADEJÓN,ES1753A,Industrial,Rural,Particulate matter < 2.5 µm (aerosol),SP_26117001_9_49,42.34,-2.059,380,Continuous data collection,2016-11-01T00:00:00Z,,SAM_26117001_9_49,SPP_26117001_9_49.1,Unknown,Beta ray attenuation,,,http://cdr.eionet.europa.eu/es/eu/aqd/d/envxfin7q
Spain,ES.BDCA.AQD,CCAA Galicia,SUBDIRECCION XERAL DE METEOROLOXIA E CAMBIO CLIMATICO (XUNTA DE GALICIA),UTC,XOVE,ES0339A,Industrial,Suburban,Sulphur dioxide (air),SP_27025015_1_38,43.686269,-7.507778,60,Continuous data collection,1994-01-01T00:00:00Z,,SAM_27025015_1_38,SPP_27025015_1_38.1,Teledyne API T100 UV Fluorescent SO2 Analyser,UV fluorescence,,,http://cdr.eionet.europa.eu/es/eu/aqd/d/envxfin7q
Spain,ES.BDCA.AQD,CCAA Galicia,SUBDIRECCION XERAL DE METEOROLOXIA E CAMBIO CLIMATICO (XUNTA DE GALICIA),UTC,XOVE,ES0339A,Industrial,Suburban,Cadmium in PM10 (aerosol),SP_27025015_28_M,43.686269,-7.507778,60,Continuous data collection,2014-01-01T00:00:00Z,2015-01-01T00:00:00Z,SAM_27025015_28_M,SPP_27025015_28_M.1,,,,Inductive coupled plasma mass spectrometryscopy (ICP-MS),http://cdr.eionet.europa.eu/es/eu/aqd/d/envxfin7q
Spain,ES.BDCA.AQD,CCAA Galicia,SUBDIRECCION XERAL DE METEOROLOXIA E CAMBIO CLIMATICO (XUNTA DE GALICIA),UTC,LUGO-FINGOY,ES1905A,Traffic,Urban,Arsenic in PM10 (aerosol),SP_27028005_17_M,42.9979,-7.5509,450,Continuous data collection,2008-07-01T00:00:00Z,,SAM_27028005_17_M,SPP_27028005_17_M.1,,,,Inductive coupled plasma mass spectrometryscopy (ICP-MS),http://cdr.eionet.europa.eu/es/eu/aqd/d/envxfin7q
Spain,ES.BDCA.AQD,CCAA Galicia,SUBDIRECCION XERAL DE METEOROLOXIA E CAMBIO CLIMATICO (XUNTA DE GALICIA),UTC,LUGO-FINGOY,ES1905A,Traffic,Urban,Benzo(a)pyrene in PM10 (aerosol),SP_27028005_27_M,42.9979,-7.5509,450,Continuous data collection,2008-07-01T00:00:00Z,,SAM_27028005_27_M,SPP_27028005_27_M.1,,,,High performance liquid chromatography - fluorescence detection (HPLC-FLD),http://cdr.eionet.europa.eu/es/eu/aqd/d/envxfin7q
Spain,ES.BDCA.AQD,CCAA Galicia,SUBDIRECCION XERAL DE METEOROLOXIA E CAMBIO CLIMATICO (XUNTA DE GALICIA),UTC,SUR,ES1175A,Industrial,Rural,Benzo(a)anthracene in PM10 (aerosol),SP_27038004_99_M,42.71527777,-7.44944444,600,Continuous data collection,2018-01-01T00:00:00Z,,SAM_27038004_99_M,SPP_27038004_99_M.1,,,,High performance liquid chromatography - fluorescence detection (HPLC-FLD),http://cdr.eionet.europa.eu/es/eu/aqd/d/envxfin7q
Spain,ES.BDCA.AQD,CCAA Madrid,ÁREA DE CALIDAD ATMOSFÉRICA DE LA COMUNIDAD DE MADRID - CONSEJERÍA DE MEDIO AMBIENTE (C. Madrid),UTC,ALCORC�N,ES1890A,Background,Urban,Nitrogen dioxide (air),SP_28007004_8_8,40.3419,-3.8337,693,Continuous data collection,2008-09-11T00:00:00Z,,SAM_28007004_8_8,SPP_28007004_8_8.1,Thermo model 42 NO/Nox analyser,Chemiluminescence,,,http://cdr.eionet.europa.eu/es/eu/aqd/d/envxfin7q
Spain,ES.BDCA.AQD,CCAA Madrid,ÁREA DE CALIDAD ATMOSFÉRICA DE LA COMUNIDAD DE MADRID - CONSEJERÍA DE MEDIO AMBIENTE (C. Madrid),UTC,EL ATAZAR,ES1802A,Background,Rural,Particulate matter < 10 µm (aerosol),SP_28016001_10_49,40.909,-3.4679,995,Continuous data collection,2006-09-01T00:00:00Z,,SAM_28016001_10_49,SPP_28016001_10_49.1,Thermo 5014i Beta Continuous Ambient Particulate Monitor,Beta ray attenuation,,,http://cdr.eionet.europa.eu/es/eu/aqd/d/envxfin7q
Spain,ES.BDCA.AQD,CCAA Madrid,ÁREA DE CALIDAD ATMOSFÉRICA DE LA COMUNIDAD DE MADRID - CONSEJERÍA DE MEDIO AMBIENTE (C. Madrid),UTC,EL ATAZAR,ES1802A,Background,Rural,Total volatile organic compounds (air),SP_28016001_42_2,40.909,-3.4679,995,Continuous data collection,2006-09-01T00:00:00Z,,SAM_28016001_42_2,SPP_28016001_42_2.1,Horiba model APHA 360E hydrocarbons analyser,Flame ionization detection (FID),,,http://cdr.eionet.europa.eu/es/eu/aqd/d/envxfin7q
Spain,ES.BDCA.AQD,CCAA Madrid,ÁREA DE CALIDAD ATMOSFÉRICA DE LA COMUNIDAD DE MADRID - CONSEJERÍA DE MEDIO AMBIENTE (C. Madrid),UTC,EL ATAZAR,ES1802A,Background,Rural,"m,p-Xylene (air)",SP_28016001_431_59,40.909,-3.4679,995,Continuous data collection,2006-09-01T00:00:00Z,,SAM_28016001_431_59,SPP_28016001_431_59.1,SYNTECH SPECTRAS GC 955-600,Gas chromatography followed by flame ionization detection (GC-FID),,,http://cdr.eionet.europa.eu/es/eu/aqd/d/envxfin7q
Spain,ES.BDCA.AQD,CCAA Madrid,ÁREA DE CALIDAD ATMOSFÉRICA DE LA COMUNIDAD DE MADRID - CONSEJERÍA DE MEDIO AMBIENTE (C. Madrid),UTC,FUENLABRADA,ES1565A,Industrial,Urban,Nitrogen dioxide (air),SP_28058004_8_8,40.281505,-3.800946,674,Continuous data collection,2000-06-29T00:00:00Z,,SAM_28058004_8_8,SPP_28058004_8_8.1,Thermo model 42i NO/Nox analyser,Chemiluminescence,,,http://cdr.eionet.europa.eu/es/eu/aqd/d/envxfin7q
Spain,ES.BDCA.AQD,CCAA Madrid,ÁREA DE CALIDAD ATMOSFÉRICA DE LA COMUNIDAD DE MADRID - CONSEJERÍA DE MEDIO AMBIENTE (C. Madrid),UTC,GETAFE,ES2028A,Traffic,Urban,Toluene (air),SP_28065014_20_59,40.314518,-3.716868,622,Continuous data collection,2013-02-15T00:00:00Z,2015-01-01T00:00:00Z,SAM_28065014_20_59,SPP_28065014_20_59.1,SYNTECH SPECTRAS GC 955-600,Gas chromatography followed by mass spectrometry (GC-MS),,,http://cdr.eionet.europa.eu/es/eu/aqd/d/envxfin7q
Spain,ES.BDCA.AQD,Ayto Madrid,SERVICIO DE CALIDAD DEL AIRE. AYUNTAMIENTO DE MADRID,UTC,ESCUELAS AGUIRRE,ES0118A,Traffic,Urban,Ozone (air),SP_28079008_14_6,40.42166666,-3.68222222,672,Continuous data collection,1998-10-01T00:00:00Z,,SAM_28079008_14_6,SPP_28079008_14_6.1,Unknown,Ultraviolet (UV) photometry,,,http://cdr.eionet.europa.eu/es/eu/aqd/d/envxfin7q
Spain,ES.BDCA.AQD,Ayto Madrid,SERVICIO DE CALIDAD DEL AIRE. AYUNTAMIENTO DE MADRID,UTC,RAMÓN Y CAJAL,ES0120A,Traffic,Urban,Nitrogen dioxide (air),SP_28079011_8_8,40.45166666,-3.67722222,708,Continuous data collection,1991-08-19T00:00:00Z,1998-08-31T00:00:00Z,SAM_28079011_8_8,SPP_28079011_8_8.1,Horiba model APNA 350E NOx analyser,Chemiluminescence,,,http://cdr.eionet.europa.eu/es/eu/aqd/d/envxfin7q
Spain,ES.BDCA.AQD,Ayto Madrid,SERVICIO DE CALIDAD DEL AIRE. AYUNTAMIENTO DE MADRID,UTC,CASA DE CAMPO,ES1193A,Background,Suburban,Nitrogen oxides (air),SP_28079024_12_8,40.42,-3.74916666,645,Continuous data collection,2015-01-01T00:00:00Z,,SAM_28079024_12_8,SPP_28079024_12_8.3,Horiba model APNA 370 NOx analyser,Chemiluminescence,,,http://cdr.eionet.europa.eu/es/eu/aqd/d/envxfin7q
Spain,ES.BDCA.AQD,Ayto Madrid,SERVICIO DE CALIDAD DEL AIRE. AYUNTAMIENTO DE MADRID,UTC,PLAZA ELÍPTICA,ES1943A,Traffic,Urban,Carbon monoxide (air),SP_28079056_6_48,40.3847,-3.7186,605,Continuous data collection,2015-01-01T00:00:00Z,,SAM_28079056_6_48,SPP_28079056_6_48.2,Horiba model APSA 360 SO2 analyser,Non-dispersive infrared spectroscopy (NDIR),,,http://cdr.eionet.europa.eu/es/eu/aqd/d/envxfin7q
Spain,ES.BDCA.AQD,Ayto Madrid,SERVICIO DE CALIDAD DEL AIRE. AYUNTAMIENTO DE MADRID,UTC,JUAN CARLOS I,ES1946A,Background,Suburban,Ozone (air),SP_28079059_14_6,40.465,-3.60888888,669,Continuous data collection,2017-02-08T00:00:00Z,,SAM_28079059_14_6,SPP_28079059_14_6.2,Unknown,Ultraviolet (UV) photometry,,,http://cdr.eionet.europa.eu/es/eu/aqd/d/envxfin7q
Spain,ES.BDCA.AQD,CCAA Madrid,ÁREA DE CALIDAD ATMOSFÉRICA DE LA COMUNIDAD DE MADRID - CONSEJERÍA DE MEDIO AMBIENTE (C. Madrid),UTC,M�STOLES,ES1568A,Background,Suburban,Nitrogen dioxide (air),SP_28092005_8_8,40.3242,-3.87677,650,Continuous data collection,2000-06-06T00:00:00Z,,SAM_28092005_8_8,SPP_28092005_8_8.1,Thermo model 42i NO/Nox analyser,Chemiluminescence,,,http://cdr.eionet.europa.eu/es/eu/aqd/d/envxfin7q
Spain,ES.BDCA.AQD,CCAA Madrid,ÁREA DE CALIDAD ATMOSFÉRICA DE LA COMUNIDAD DE MADRID - CONSEJERÍA DE MEDIO AMBIENTE (C. Madrid),UTC,RIVAS-VACIAMADRID,ES1807A,Background,Suburban,Ozone (air),SP_28123002_14_6,40.3597,-3.5429,610,Continuous data collection,2006-08-02T00:00:00Z,,SAM_28123002_14_6,SPP_28123002_14_6.1,Thermo model 49i O3 analyser,Ultraviolet (UV) photometry,,,http://cdr.eionet.europa.eu/es/eu/aqd/d/envxfin7q
Spain,ES.BDCA.AQD,CCAA Andalucía,"CONSEJERIA DE AGRICULTURA, GANADERIA, PESCA Y DESARROLLO SOSTENIBLE. DIRECCION GENERAL DE CALIDAD AMBIENTAL Y CAMBIO CLIMATICO (JUNTA DE ANDALUCIA)",UTC,CARRANQUE,ES1750A,Background,Urban,n-Hexane (air),SP_29067006_417_I,36.71964,-4.4475,36,Continuous data collection,2011-01-01T00:00:00Z,,SAM_29067006_417_I,SPP_29067006_417_I.1,,,,Gas chromatography + mass spectrometry (GC-MS),http://cdr.eionet.europa.eu/es/eu/aqd/d/envxfin7q
Spain,ES.BDCA.AQD,CCAA Andalucía,"CONSEJERIA DE AGRICULTURA, GANADERIA, PESCA Y DESARROLLO SOSTENIBLE. DIRECCION GENERAL DE CALIDAD AMBIENTAL Y CAMBIO CLIMATICO (JUNTA DE ANDALUCIA)",UTC,AVENIDA JUAN XXIII,ES2031A,Traffic,Urban,Nitrogen monoxide (air),SP_29067008_7_8,36.7073,-4.446,380,Continuous data collection,2012-12-01T00:00:00Z,2018-12-11T00:00:00Z,SAM_29067008_7_8,SPP_29067008_7_8.1,Unknown,Chemiluminescence,,,http://cdr.eionet.europa.eu/es/eu/aqd/d/envxfin7q
Spain,ES.BDCA.AQD,CCAA Andalucía,"CONSEJERIA DE AGRICULTURA, GANADERIA, PESCA Y DESARROLLO SOSTENIBLE. DIRECCION GENERAL DE CALIDAD AMBIENTAL Y CAMBIO CLIMATICO (JUNTA DE ANDALUCIA)",UTC,AVENIDA JUAN XXIII,ES2031A,Traffic,Urban,Nitrogen monoxide (air),SP_29067008_7_8,36.7073,-4.446,380,Continuous data collection,2018-12-12T00:00:00Z,,SAM_29067008_7_8,SPP_29067008_7_8.2,Thermo model 42i NO/Nox analyser,Chemiluminescence,,,http://cdr.eionet.europa.eu/es/eu/aqd/d/envxfin7q
Spain,ES.BDCA.AQD,CCAA Andalucía,"CONSEJERIA DE AGRICULTURA, GANADERIA, PESCA Y DESARROLLO SOSTENIBLE. DIRECCION GENERAL DE CALIDAD AMBIENTAL Y CAMBIO CLIMATICO (JUNTA DE ANDALUCIA)",UTC,MARBELLA ARCO,ES2030A,Traffic,Urban,Carbon monoxide (air),SP_29069002_6_48,36.511,-4.863,39,Continuous data collection,2012-10-30T00:00:00Z,2018-12-18T00:00:00Z,SAM_29069002_6_48,SPP_29069002_6_48.1,Unknown,Non-dispersive infrared spectroscopy (NDIR),,,http://cdr.eionet.europa.eu/es/eu/aqd/d/envxfin7q
Spain,ES.BDCA.AQD,CCAA Andalucía,"CONSEJERIA DE AGRICULTURA, GANADERIA, PESCA Y DESARROLLO SOSTENIBLE. DIRECCION GENERAL DE CALIDAD AMBIENTAL Y CAMBIO CLIMATICO (JUNTA DE ANDALUCIA)",UTC,MARBELLA ARCO,ES2030A,Traffic,Urban,Particulate matter < 2.5 µm (aerosol),SP_29069002_9_M,36.511,-4.863,39,Continuous data collection,2013-01-01T00:00:00Z,,SAM_29069002_9_M,SPP_29069002_9_M.1,,,,Gravimetric analysis,http://cdr.eionet.europa.eu/es/eu/aqd/d/envxfin7q
Spain,ES.BDCA.AQD,CCAA Navarra,"DEPARTAMENTO DESARROLLO RURAL, MEDIO AMBIENTE Y ADMINISTRACIÓN LOCAL. GOBIERNO DE NAVARRA. SERVICIO DE CALIDAD AMBIENTAL Y CAMBIO CLIMATICO",UTC,OLITE,ES2082A,Background,Suburban,Ozone (air),SP_31191001_14_6,42.4896,-1.65583,389,Continuous data collection,2016-09-12T00:00:00Z,,SAM_31191001_14_6,SPP_31191001_14_6.1,Teledyne API T400 UV photometric O3 analyser,Ultraviolet (UV) photometry,,,http://cdr.eionet.europa.eu/es/eu/aqd/d/envxfin7q
Spain,ES.BDCA.AQD,CCAA Galicia,SUBDIRECCION XERAL DE METEOROLOXIA E CAMBIO CLIMATICO (XUNTA DE GALICIA),UTC,GOMEZ FRANQUEIRA,ES1096A,Traffic,Urban,Nitrogen monoxide (air),SP_32054004_7_8,42.353,-7.8779,132,Continuous data collection,1991-01-01T00:00:00Z,,SAM_32054004_7_8,SPP_32054004_7_8.1,Teledyne API T200 chemiluminescent NOx analyser,Chemiluminescence,,,http://cdr.eionet.europa.eu/es/eu/aqd/d/envxfin7q
Spain,ES.BDCA.AQD,CCAA Asturias,"CONSEJERÍA DE INFRAESTRUCTURAS, ORDENACIÓN DEL TERRITORIO Y MEDIO AMBIENTE (ASTURIAS)",UTC,LLANOPONTE,ES0880A,Traffic,Urban,Nitrogen dioxide (air),SP_33004021_8_8,43.5512,-5.9197,6,Continuous data collection,1988-09-01T00:00:00Z,,SAM_33004021_8_8,SPP_33004021_8_8.1,Teledyne API 200A chemiluminescent NOx analyser,Chemiluminescence,,,http://cdr.eionet.europa.eu/es/eu/aqd/d/envxfin7q
Spain,ES.BDCA.AQD,CCAA Asturias,"CONSEJERÍA DE INFRAESTRUCTURAS, ORDENACIÓN DEL TERRITORIO Y MEDIO AMBIENTE (ASTURIAS)",UTC,SANTA BÁRBARA,ES2069A,Background,Suburban,Nitrogen oxides (air),SP_33024032_12_8,43.5229,-5.6895,38,Continuous data collection,2016-01-01T00:00:00Z,,SAM_33024032_12_8,SPP_33024032_12_8.1,Unknown,Chemiluminescence,,,http://cdr.eionet.europa.eu/es/eu/aqd/d/envxfin7q
Spain,ES.BDCA.AQD,CCAA Asturias,"CONSEJERÍA DE INFRAESTRUCTURAS, ORDENACIÓN DEL TERRITORIO Y MEDIO AMBIENTE (ASTURIAS)",UTC,SAMA I,ES1353A,Background,Urban,"m,p-Xylene (air)",SP_33031032_431_59,43.2941,-5.6796,216,Continuous data collection,2009-01-01T00:00:00Z,,SAM_33031032_431_59,SPP_33031032_431_59.1,Unknown,Gas chromatography followed by mass spectrometry (GC-MS),,,http://cdr.eionet.europa.eu/es/eu/aqd/d/envxfin7q
Spain,ES.BDCA.AQD,CCAA Asturias,"CONSEJERÍA DE INFRAESTRUCTURAS, ORDENACIÓN DEL TERRITORIO Y MEDIO AMBIENTE (ASTURIAS)",UTC,PALACIO DE DEPORTES,ES1269A,Traffic,Urban,Particulate matter < 2.5 µm (aerosol),SP_33044030_9_49,43.3665,-5.833,180,Continuous data collection,2018-03-13T00:00:00Z,,SAM_33044030_9_49,SPP_33044030_9_49.1,Thermo 5014i Beta Continuous Ambient Particulate Monitor,Beta ray attenuation,,,http://cdr.eionet.europa.eu/es/eu/aqd/d/envxfin7q
Spain,ES.BDCA.AQD,CCAA Asturias,"CONSEJERÍA DE INFRAESTRUCTURAS, ORDENACIÓN DEL TERRITORIO Y MEDIO AMBIENTE (ASTURIAS)",UTC,TRUBIA PISCINAS,ES2075A,Industrial,Suburban,"m,p-Xylene (air)",SP_33044033_431_59,43.3457,-5.9697,89,Continuous data collection,2016-06-17T00:00:00Z,,SAM_33044033_431_59,SPP_33044033_431_59.1,Unknown,Gas chromatography followed by mass spectrometry (GC-MS),,,http://cdr.eionet.europa.eu/es/eu/aqd/d/envxfin7q
Spain,ES.BDCA.AQD,CCAA Castilla y León,DIRECCIÓN GENERAL DE CALIDAD Y SOSTENIBILIDAD AMBIENTAL. JUNTA DE CASTILLA Y LEÓN,UTC,GUARDO,ES1287A,Industrial,Urban,Particulate matter < 10 µm (aerosol),SP_34080004_10_49,42.79527777,-4.84083333,1120,Continuous data collection,1998-10-01T00:00:00Z,,SAM_34080004_10_49,SPP_34080004_10_49.1,Unknown,Beta ray attenuation,,,http://cdr.eionet.europa.eu/es/eu/aqd/d/envxfin7q
Spain,ES.BDCA.AQD,CCAA Islas Canarias,SERVICIO DE PREVENCION Y CONTROL DE LA CONTAMINACION. VICECONSEJERIA DE MEDIO AMBIENTE - GOBIERNO DE CANARIAS,UTC,ARINAGA,ES1744A,Industrial,Rural,Nitrogen monoxide (air),SP_35002002_7_8,27.86907,-15.38715,23,Continuous data collection,1993-06-15T00:00:00Z,,SAM_35002002_7_8,SPP_35002002_7_8.1,Teledyne API 200A chemiluminescent NOx analyser,Chemiluminescence,,,http://cdr.eionet.europa.eu/es/eu/aqd/d/envxfin7q
Spain,ES.BDCA.AQD,CCAA Islas Canarias,SERVICIO DE PREVENCION Y CONTROL DE LA CONTAMINACION. VICECONSEJERIA DE MEDIO AMBIENTE - GOBIERNO DE CANARIAS,UTC,CASA PALACIO-PUERTO DEL ROSARIO,ES1978A,Background,Urban,Particulate matter < 2.5 µm (aerosol),SP_35017003_9_49,28.49838,-13.86083,23,Continuous data collection,2010-06-18T00:00:00Z,,SAM_35017003_9_49,SPP_35017003_9_49.1,Unknown,Beta ray attenuation,,,http://cdr.eionet.europa.eu/es/eu/aqd/d/envxfin7q
Spain,ES.BDCA.AQD,CCAA Islas Canarias,SERVICIO DE PREVENCION Y CONTROL DE LA CONTAMINACION. VICECONSEJERIA DE MEDIO AMBIENTE - GOBIERNO DE CANARIAS,UTC,EL CHARCO-PTO DEL ROSARIO,ES2025A,Industrial,Urban,Particulate matter < 10 µm (aerosol),SP_35017005_10_49,28.50616,-13.84898,15,Continuous data collection,2012-03-06T00:00:00Z,,SAM_35017005_10_49,SPP_35017005_10_49.1,Unknown,Beta ray attenuation,,,http://cdr.eionet.europa.eu/es/eu/aqd/d/envxfin7q
Spain,ES.BDCA.AQD,CCAA Galicia,SUBDIRECCION XERAL DE METEOROLOXIA E CAMBIO CLIMATICO (XUNTA DE GALICIA),UTC,ESTACION 2 (OESTE),ES1439A,Industrial,Urban,Cadmium in PM10 (aerosol),SP_36057022_28_M,42.2029,-8.747,26,Continuous data collection,2016-01-01T00:00:00Z,,SAM_36057022_28_M,SPP_36057022_28_M.1,,,,Inductive coupled plasma mass spectrometryscopy (ICP-MS),http://cdr.eionet.europa.eu/es/eu/aqd/d/envxfin7q
Spain,ES.BDCA.AQD,CCAA Islas Canarias,SERVICIO DE PREVENCION Y CONTROL DE LA CONTAMINACION. VICECONSEJERIA DE MEDIO AMBIENTE - GOBIERNO DE CANARIAS,UTC,EL RÍO,ES1766A,Industrial,Suburban,Nitrogen monoxide (air),SP_38006003_7_8,28.145093,-16.523687,500,Continuous data collection,1994-10-01T00:00:00Z,,SAM_38006003_7_8,SPP_38006003_7_8.1,Teledyne API 200A chemiluminescent NOx analyser,Chemiluminescence,,,http://cdr.eionet.europa.eu/es/eu/aqd/d/envxfin7q
Spain,ES.BDCA.AQD,CCAA Islas Canarias,SERVICIO DE PREVENCION Y CONTROL DE LA CONTAMINACION. VICECONSEJERIA DE MEDIO AMBIENTE - GOBIERNO DE CANARIAS,UTC,SAN ANTONIO-BREÑA BAJA,ES1956A,Background,Suburban,Carbon monoxide (air),SP_38009001_6_48,28.645396,-17.771554,208,Continuous data collection,2010-01-18T00:00:00Z,,SAM_38009001_6_48,SPP_38009001_6_48.1,Unknown,Non-dispersive infrared spectroscopy (NDIR),,,http://cdr.eionet.europa.eu/es/eu/aqd/d/envxfin7q
Spain,ES.BDCA.AQD,CCAA Islas Canarias,SERVICIO DE PREVENCION Y CONTROL DE LA CONTAMINACION. VICECONSEJERIA DE MEDIO AMBIENTE - GOBIERNO DE CANARIAS,UTC,BARRANCO HONDO,ES1772A,Industrial,Suburban,Particulate matter < 10 µm (aerosol),SP_38011006_10_A,28.393408,-16.3581,396,Continuous data collection,2005-01-01T00:00:00Z,2018-03-12T00:00:00Z,SAM_38011006_10_A,SPP_38011006_10_A.1,Unknown,Tapered Element Oscillating Microbalance (TEOM),,,http://cdr.eionet.europa.eu/es/eu/aqd/d/envxfin7q
Spain,ES.BDCA.AQD,CCAA Islas Canarias,SERVICIO DE PREVENCION Y CONTROL DE LA CONTAMINACION. VICECONSEJERIA DE MEDIO AMBIENTE - GOBIERNO DE CANARIAS,UTC,MÉDANO,ES1762A,Industrial,Urban,Nitrogen monoxide (air),SP_38017001_7_8,28.047332,-16.536049,12,Continuous data collection,1994-10-01T00:00:00Z,,SAM_38017001_7_8,SPP_38017001_7_8.1,Teledyne API 200A chemiluminescent NOx analyser,Chemiluminescence,,,http://cdr.eionet.europa.eu/es/eu/aqd/d/envxfin7q
Spain,ES.BDCA.AQD,CCAA Islas Canarias,SERVICIO DE PREVENCION Y CONTROL DE LA CONTAMINACION. VICECONSEJERIA DE MEDIO AMBIENTE - GOBIERNO DE CANARIAS,UTC,SAN ISIDRO,ES1761A,Industrial,Urban,Nitrogen monoxide (air),SP_38017002_7_8,28.080007,-16.559855,235,Continuous data collection,1994-10-01T00:00:00Z,,SAM_38017002_7_8,SPP_38017002_7_8.1,Teledyne API 200A chemiluminescent NOx analyser,Chemiluminescence,,,http://cdr.eionet.europa.eu/es/eu/aqd/d/envxfin7q
Spain,ES.BDCA.AQD,CCAA Islas Canarias,SERVICIO DE PREVENCION Y CONTROL DE LA CONTAMINACION. VICECONSEJERIA DE MEDIO AMBIENTE - GOBIERNO DE CANARIAS,UTC,PISCINA MUNICIPAL-STA CRUZ DE TF,ES2000A,Industrial,Urban,"m,p-Xylene (air)",SP_38038023_431_59,28.457954,-16.26333,68,Continuous data collection,2010-12-15T00:00:00Z,,SAM_38038023_431_59,SPP_38038023_431_59.1,Unknown,Gas chromatography followed by mass spectrometry (GC-MS),,,http://cdr.eionet.europa.eu/es/eu/aqd/d/envxfin7q
Spain,ES.BDCA.AQD,CCAA Islas Canarias,SERVICIO DE PREVENCION Y CONTROL DE LA CONTAMINACION. VICECONSEJERIA DE MEDIO AMBIENTE - GOBIERNO DE CANARIAS,UTC,TIO PINO-STA CRUZ DE TENERIFE,ES2038A,Industrial,Urban,Nitrogen monoxide (air),SP_38038027_7_8,28.459314,-16.270206,104,Continuous data collection,2013-03-01T00:00:00Z,,SAM_38038027_7_8,SPP_38038027_7_8.1,Unknown,Chemiluminescence,,,http://cdr.eionet.europa.eu/es/eu/aqd/d/envxfin7q
Spain,ES.BDCA.AQD,CCAA Cantabria,CENTRO DE INVESTIGACIÓN DEL MEDIO AMBIENTE (CANTABRIA),UTC,ESTACIÓN DEL MEDITERRANEO,ES1576A,Industrial,Suburban,Nickel in PM10 (aerosol),SP_39008001_62_M,43.40444,-3.84194,16,Continuous data collection,2018-01-01T00:00:00Z,,SAM_39008001_62_M,SPP_39008001_62_M.1,,,,Inductive coupled plasma mass spectrometryscopy (ICP-MS),http://cdr.eionet.europa.eu/es/eu/aqd/d/envxfin7q
Spain,ES.BDCA.AQD,CCAA Cantabria,CENTRO DE INVESTIGACIÓN DEL MEDIO AMBIENTE (CANTABRIA),UTC,CASTRO URDIALES,ES1578A,Background,Urban,Particulate matter < 10 µm (aerosol),SP_39020001_10_49,43.3825,-3.22056,20,Continuous data collection,2000-01-31T00:00:00Z,,SAM_39020001_10_49,SPP_39020001_10_49.1,Unknown,Beta ray attenuation,,,http://cdr.eionet.europa.eu/es/eu/aqd/d/envxfin7q
Spain,ES.BDCA.AQD,CCAA Cantabria,CENTRO DE INVESTIGACIÓN DEL MEDIO AMBIENTE (CANTABRIA),UTC,CASTRO URDIALES,ES1578A,Background,Urban,Benzo(a)pyrene in PM10 (aerosol),SP_39020001_27_M,43.3825,-3.22056,20,Continuous data collection,2013-01-01T00:00:00Z,,SAM_39020001_27_M,SPP_39020001_27_M.1,,,,Atomic absorption spectrometry (AAS),http://cdr.eionet.europa.eu/es/eu/aqd/d/envxfin7q
Spain,ES.BDCA.AQD,CCAA Cantabria,CENTRO DE INVESTIGACIÓN DEL MEDIO AMBIENTE (CANTABRIA),UTC,TETUÁN,ES1529A,Background,Urban,Particulate matter < 2.5 µm (aerosol),SP_39075005_9_M,43.46778,-3.79028,30,Continuous data collection,2009-01-01T00:00:00Z,,SAM_39075005_9_M,SPP_39075005_9_M.1,,,,Gravimetric analysis,http://cdr.eionet.europa.eu/es/eu/aqd/d/envxfin7q
Spain,ES.BDCA.AQD,CCAA Cantabria,CENTRO DE INVESTIGACIÓN DEL MEDIO AMBIENTE (CANTABRIA),UTC,LOS TOJOS,ES1531A,Background,Rural,Nitrogen dioxide (air),SP_39086001_8_8,43.15333,-4.25306,650,Continuous data collection,1999-01-01T00:00:00Z,,SAM_39086001_8_8,SPP_39086001_8_8.1,Unknown,Chemiluminescence,,,http://cdr.eionet.europa.eu/es/eu/aqd/d/envxfin7q
Spain,ES.BDCA.AQD,CCAA Cantabria,CENTRO DE INVESTIGACIÓN DEL MEDIO AMBIENTE (CANTABRIA),UTC,ESCUELA DE MINAS,ES1039A,Background,Urban,Arsenic in PM10 (aerosol),SP_39087005_17_M,43.35583,-4.06361,20,Continuous data collection,2015-01-01T00:00:00Z,,SAM_39087005_17_M,SPP_39087005_17_M.1,,,,Inductive coupled plasma mass spectrometryscopy (ICP-MS),http://cdr.eionet.europa.eu/es/eu/aqd/d/envxfin7q
Spain,ES.BDCA.AQD,CCAA Castilla y León,DIRECCIÓN GENERAL DE CALIDAD Y SOSTENIBILIDAD AMBIENTAL. JUNTA DE CASTILLA Y LEÓN,UTC,SEGOVIA 2,ES1967A,Traffic,Urban,Nitrogen dioxide (air),SP_40194002_8_8,40.95555555,-4.11055555,952,Continuous data collection,2010-02-03T00:00:00Z,,SAM_40194002_8_8,SPP_40194002_8_8.1,Teledyne API 200E chemiluminescent NOx analyser,Chemiluminescence,,,http://cdr.eionet.europa.eu/es/eu/aqd/d/envxfin7q
Spain,ES.BDCA.AQD,CCAA Andalucía,"CONSEJERIA DE AGRICULTURA, GANADERIA, PESCA Y DESARROLLO SOSTENIBLE. DIRECCION GENERAL DE CALIDAD AMBIENTAL Y CAMBIO CLIMATICO (JUNTA DE ANDALUCIA)",UTC,SIERRA NORTE,ES1654A,Background,Rural,Benzo(ghi)perylene in PM10 (aerosol),SP_41088001_80_M,37.99435,-5.66687,573,Continuous data collection,2015-01-01T00:00:00Z,,SAM_41088001_80_M,SPP_41088001_80_M.1,,,,High performance liquid chromatography - mass spectrometry (HPLC-MS),http://cdr.eionet.europa.eu/es/eu/aqd/d/envxfin7q
Spain,ES.BDCA.AQD,CCAA Andalucía,"CONSEJERIA DE AGRICULTURA, GANADERIA, PESCA Y DESARROLLO SOSTENIBLE. DIRECCION GENERAL DE CALIDAD AMBIENTAL Y CAMBIO CLIMATICO (JUNTA DE ANDALUCIA)",UTC,SANTA CLARA,ES1450A,Background,Suburban,1-Hexene (air),SP_41091015_418_I,37.39831,-5.95165,29,Continuous data collection,2011-01-01T00:00:00Z,,SAM_41091015_418_I,SPP_41091015_418_I.1,,,,Gas chromatography + mass spectrometry (GC-MS),http://cdr.eionet.europa.eu/es/eu/aqd/d/envxfin7q
Spain,ES.BDCA.AQD,CCAA Andalucía,"CONSEJERIA DE AGRICULTURA, GANADERIA, PESCA Y DESARROLLO SOSTENIBLE. DIRECCION GENERAL DE CALIDAD AMBIENTAL Y CAMBIO CLIMATICO (JUNTA DE ANDALUCIA)",UTC,SANTA CLARA,ES1450A,Background,Suburban,"1,3,5-Trimethylbenzene (air)",SP_41091015_426_I,37.39831,-5.95165,29,Continuous data collection,2011-01-01T00:00:00Z,,SAM_41091015_426_I,SPP_41091015_426_I.1,,,,Gas chromatography + mass spectrometry (GC-MS),http://cdr.eionet.europa.eu/es/eu/aqd/d/envxfin7q
Spain,ES.BDCA.AQD,CCAA Andalucía,"CONSEJERIA DE AGRICULTURA, GANADERIA, PESCA Y DESARROLLO SOSTENIBLE. DIRECCION GENERAL DE CALIDAD AMBIENTAL Y CAMBIO CLIMATICO (JUNTA DE ANDALUCIA)",UTC,CENTRO,ES1644A,Background,Urban,Carbon monoxide (air),SP_41091019_6_48,37.38808,-5.99149,19,Continuous data collection,2002-10-28T00:00:00Z,,SAM_41091019_6_48,SPP_41091019_6_48.1,Unknown,Non-dispersive infrared spectroscopy (NDIR),,,http://cdr.eionet.europa.eu/es/eu/aqd/d/envxfin7q
Spain,ES.BDCA.AQD,CCAA Cataluña,DIRECCIO GENERAL DE QUALITAT AMBIENTAL. SERVICIO DE VIGILANCIA Y CONTROL DEL AIRE (CATALUNA),UTC,Constantí (Gaudí),ES1123A,Industrial,Suburban,Benzo(b)fluoranthene in PM10 (aerosol),SP_43047001_98_M,41.154923544,1.217717688,56,Continuous data collection,2009-01-01T00:00:00Z,,SAM_43047001_98_M,SPP_43047001_98_M.1,,,,Gas chromatography + mass spectrometry (GC-MS),http://cdr.eionet.europa.eu/es/eu/aqd/d/envxfin7q
Spain,ES.BDCA.AQD,CCAA Cataluña,DIRECCIO GENERAL DE QUALITAT AMBIENTAL. SERVICIO DE VIGILANCIA Y CONTROL DEL AIRE (CATALUNA),UTC,Vandellòs i l'Hospitalet de l'Infant (els Dedalts),ES1854A,Background,Rural,Nitrogen dioxide (air),SP_43162001_8_8,41.00821168,0.831084709,737,Continuous data collection,2006-12-31T00:00:00Z,,SAM_43162001_8_8,SPP_43162001_8_8.1,Environnement S.A. Model AC32M NO2 Analyzer,Chemiluminescence,,,http://cdr.eionet.europa.eu/es/eu/aqd/d/envxfin7q
Spain,ES.BDCA.AQD,CCAA Cataluña,DIRECCIO GENERAL DE QUALITAT AMBIENTAL. SERVICIO DE VIGILANCIA Y CONTROL DEL AIRE (CATALUNA),UTC,Vila-seca (RENFE),ES1117A,Background,Suburban,Particulate matter < 10 µm (aerosol),SP_43171001_10_M,41.112090852,1.151824406,41,Continuous data collection,1991-02-01T00:00:00Z,,SAM_43171001_10_M,SPP_43171001_10_M.1,,,,Gravimetric analysis,http://cdr.eionet.europa.eu/es/eu/aqd/d/envxfin7q
Spain,ES.BDCA.AQD,CCAA Aragón,DIRECCIÓN GENERAL DE SOSTENIBILIDAD DEL GOBIERNO DE ARAGÓN,UTC,MONAGREGA,ES0316A,Background,Rural,Ozone (air),SP_44051002_14_6,40.94667,-0.29083,570,Continuous data collection,1985-01-01T00:00:00Z,,SAM_44051002_14_6,SPP_44051002_14_6.1,Unknown,Ultraviolet (UV) photometry,,,http://cdr.eionet.europa.eu/es/eu/aqd/d/envxfin7q
Spain,ES.BDCA.AQD,EMEP/VAG/CAMP,AGENCIA ESTATAL METEOROLOGÍA,UTC,SAN PABLO DE LOS MONTES,ES0001R,Background,Rural,chloride in PM2.5 (aerosol),SP_45153999_129_M,39.54694,-4.35056,917,Continuous data collection,2012-01-01T00:00:00Z,,SAM_45153999_129_M,SPP_45153999_129_M.1,,,,Ion chromatography,http://cdr.eionet.europa.eu/es/eu/aqd/d/envxfin7q
Spain,ES.BDCA.AQD,CCAA Islas Baleares,"DIRECCIÓ GENERAL D'ENERGIA I CANVI CLIMÀTIC. CONSELLERIA DE TERRITORI, ENERGIA I MOBILITAT. SECCIÓ CONTAMINACIÓ ATMOSFÈRICA. GOVERN DE LES ILLES BALEARS",UTC,CAN MISSES,ES1246A,Industrial,Urban,Nitrogen dioxide (air),SP_07026001_8_8,38.9138,1.4143,25,Continuous data collection,1992-07-13T00:00:00Z,,SAM_07026001_8_8,SPP_07026001_8_8.1,MCV 30-QL,Chemiluminescence,,,http://cdr.eionet.europa.eu/es/eu/aqd/d/envxfin7q
Spain,ES.BDCA.AQD,CCAA Islas Baleares,"DIRECCIÓ GENERAL D'ENERGIA I CANVI CLIMÀTIC. CONSELLERIA DE TERRITORI, ENERGIA I MOBILITAT. SECCIÓ CONTAMINACIÓ ATMOSFÈRICA. GOVERN DE LES ILLES BALEARS",UTC,CAN MISSES,ES1246A,Industrial,Urban,Benzo(a)anthracene in PM10 (aerosol),SP_07026001_99_M,38.9138,1.4143,25,Continuous data collection,2014-01-01T00:00:00Z,,SAM_07026001_99_M,SPP_07026001_99_M.1,,,,High performance liquid chromatography - mass spectrometry (HPLC-MS),http://cdr.eionet.europa.eu/es/eu/aqd/d/envxfin7q
Spain,ES.BDCA.AQD,CCAA Islas Baleares,"DIRECCIÓ GENERAL D'ENERGIA I CANVI CLIMÀTIC. CONSELLERIA DE TERRITORI, ENERGIA I MOBILITAT. SECCIÓ CONTAMINACIÓ ATMOSFÈRICA. GOVERN DE LES ILLES BALEARS",UTC,DALT VILA,ES1247A,Industrial,Urban,Nitrogen monoxide (air),SP_07026002_7_8,38.90648,1.43537,44,Continuous data collection,1992-07-13T00:00:00Z,,SAM_07026002_7_8,SPP_07026002_7_8.1,MCV 30-QL,Chemiluminescence,,,http://cdr.eionet.europa.eu/es/eu/aqd/d/envxfin7q
Spain,ES.BDCA.AQD,CCAA Islas Baleares,"DIRECCIÓ GENERAL D'ENERGIA I CANVI CLIMÀTIC. CONSELLERIA DE TERRITORI, ENERGIA I MOBILITAT. SECCIÓ CONTAMINACIÓ ATMOSFÈRICA. GOVERN DE LES ILLES BALEARS",UTC,POUS,ES1095A,Industrial,Urban,indeno_123cd_pyrene in PM10 (aerosol),SP_07032002_95_M,39.8909,4.253,55,Continuous data collection,2014-01-01T00:00:00Z,,SAM_07032002_95_M,SPP_07032002_95_M.1,,,,High performance liquid chromatography - mass spectrometry (HPLC-MS),http://cdr.eionet.europa.eu/es/eu/aqd/d/envxfin7q
Spain,ES.BDCA.AQD,EMEP/VAG/CAMP,AGENCIA ESTATAL METEOROLOGÍA,UTC,MAHÓN,ES0006R,Background,Rural,Ozone (air),SP_07032999_14_6,39.87528,4.31639,78,Continuous data collection,2008-01-01T00:00:00Z,,SAM_07032999_14_6,SPP_07032999_14_6.1,Unknown,Ultraviolet (UV) photometry,,,http://cdr.eionet.europa.eu/es/eu/aqd/d/envxfin7q
Spain,ES.BDCA.AQD,CCAA Islas Baleares,"DIRECCIÓ GENERAL D'ENERGIA I CANVI CLIMÀTIC. CONSELLERIA DE TERRITORI, ENERGIA I MOBILITAT. SECCIÓ CONTAMINACIÓ ATMOSFÈRICA. GOVERN DE LES ILLES BALEARS",UTC,BELLVER,ES1604A,Background,Suburban,Ozone (air),SP_07040003_14_6,39.56332,2.62055,117,Continuous data collection,2001-07-01T00:00:00Z,,SAM_07040003_14_6,SPP_07040003_14_6.1,Teledyne API 400A UV photometric O3 analyser,Ultraviolet (UV) photometry,,,http://cdr.eionet.europa.eu/es/eu/aqd/d/envxfin7q
Spain,ES.BDCA.AQD,CCAA Islas Baleares,"DIRECCIÓ GENERAL D'ENERGIA I CANVI CLIMÀTIC. CONSELLERIA DE TERRITORI, ENERGIA I MOBILITAT. SECCIÓ CONTAMINACIÓ ATMOSFÈRICA. GOVERN DE LES ILLES BALEARS",UTC,BELLVER,ES1604A,Background,Suburban,Carbon monoxide (air),SP_07040003_6_48,39.56332,2.62055,117,Continuous data collection,2001-07-01T00:00:00Z,2013-12-09T00:00:00Z,SAM_07040003_6_48,SPP_07040003_6_48.1,Unknown,Non-dispersive infrared spectroscopy (NDIR),,,http://cdr.eionet.europa.eu/es/eu/aqd/d/envxfin7q
Spain,ES.BDCA.AQD,CCAA Islas Baleares,"DIRECCIÓ GENERAL D'ENERGIA I CANVI CLIMÀTIC. CONSELLERIA DE TERRITORI, ENERGIA I MOBILITAT. SECCIÓ CONTAMINACIÓ ATMOSFÈRICA. GOVERN DE LES ILLES BALEARS",UTC,SA POBLA,ES0296A,Background,Rural,Ozone (air),SP_07044001_14_6,39.74731,3.01488,7,Continuous data collection,2005-01-01T00:00:00Z,,SAM_07044001_14_6,SPP_07044001_14_6.1,Thermo model 49c O3 analyser,Ultraviolet (UV) photometry,,,http://cdr.eionet.europa.eu/es/eu/aqd/d/envxfin7q
Spain,ES.BDCA.AQD,CCAA Cataluña,DIRECCIO GENERAL DE QUALITAT AMBIENTAL. SERVICIO DE VIGILANCIA Y CONTROL DEL AIRE (CATALUNA),UTC,Badalona (Mont-roig - Ausiàs March),ES1892A,Background,Urban,Sulphur dioxide (air),SP_08015021_1_38,41.443983561,2.237875306,7,Continuous data collection,2008-12-01T00:00:00Z,,SAM_08015021_1_38,SPP_08015021_1_38.1,Unknown,UV fluorescence,,,http://cdr.eionet.europa.eu/es/eu/aqd/d/envxfin7q
Spain,ES.BDCA.AQD,CCAA Cataluña,DIRECCIO GENERAL DE QUALITAT AMBIENTAL. SERVICIO DE VIGILANCIA Y CONTROL DEL AIRE (CATALUNA),UTC,Barcelona (el Poblenou),ES0691A,Background,Urban,Cadmium in PM10 (aerosol),SP_08019004_28_M,41.403881851,2.204522594,3,Continuous data collection,2012-01-01T00:00:00Z,2012-12-31T00:00:00Z,SAM_08019004_28_M,SPP_08019004_28_M.3,,,,Inductive coupled plasma atomic emission spectrometry (ICP-AES),http://cdr.eionet.europa.eu/es/eu/aqd/d/envxfin7q
Spain,ES.BDCA.AQD,CCAA Cataluña,DIRECCIO GENERAL DE QUALITAT AMBIENTAL. SERVICIO DE VIGILANCIA Y CONTROL DEL AIRE (CATALUNA),UTC,Barcelona (el Poblenou),ES0691A,Background,Urban,Cadmium in PM10 (aerosol),SP_08019004_28_M,41.403881851,2.204522594,3,Continuous data collection,2007-05-01T00:00:00Z,2008-12-31T00:00:00Z,SAM_08019004_28_M,SPP_08019004_28_M.1,,,,Atomic absorption spectrometry (AAS),http://cdr.eionet.europa.eu/es/eu/aqd/d/envxfin7q
Spain,ES.BDCA.AQD,CCAA Cataluña,DIRECCIO GENERAL DE QUALITAT AMBIENTAL. SERVICIO DE VIGILANCIA Y CONTROL DEL AIRE (CATALUNA),UTC,Barcelona (el Poblenou),ES0691A,Background,Urban,Benzene (air),SP_08019004_30_M,41.403881851,2.204522594,3,Continuous data collection,2003-01-01T00:00:00Z,,SAM_08019004_30_M,SPP_08019004_30_M.1,,,,GC-MS type,http://cdr.eionet.europa.eu/es/eu/aqd/d/envxfin7q
Spain,ES.BDCA.AQD,CCAA Cataluña,DIRECCIO GENERAL DE QUALITAT AMBIENTAL. SERVICIO DE VIGILANCIA Y CONTROL DEL AIRE (CATALUNA),UTC,Barcelona (Sants),ES1396A,Background,Urban,o-Xylene (air),SP_08019042_39_M,41.378802802,2.133098078,35,Continuous data collection,2012-01-01T00:00:00Z,,SAM_08019042_39_M,SPP_08019042_39_M.2,,,,Gas chromatography + mass spectrometry (GC-MS),http://cdr.eionet.europa.eu/es/eu/aqd/d/envxfin7q
Spain,ES.BDCA.AQD,CCAA Cataluña,DIRECCIO GENERAL DE QUALITAT AMBIENTAL. SERVICIO DE VIGILANCIA Y CONTROL DEL AIRE (CATALUNA),UTC,Barcelona (l'Eixample),ES1438A,Traffic,Urban,Lead in PM10 (aerosol),SP_08019043_19_M,41.385343284,2.15382196,26,Continuous data collection,2012-01-01T00:00:00Z,2012-12-31T00:00:00Z,SAM_08019043_19_M,SPP_08019043_19_M.3,,,,Inductive coupled plasma atomic emission spectrometry (ICP-AES),http://cdr.eionet.europa.eu/es/eu/aqd/d/envxfin7q
Spain,ES.BDCA.AQD,CCAA Cataluña,DIRECCIO GENERAL DE QUALITAT AMBIENTAL. SERVICIO DE VIGILANCIA Y CONTROL DEL AIRE (CATALUNA),UTC,Barcelona (IES Verdaguer),ES1900A,Background,Urban,Benzo(a)pyrene in PM10 (aerosol),SP_08019055_27_M,41.387237826,2.186736695,7,Continuous data collection,2010-01-01T00:00:00Z,,SAM_08019055_27_M,SPP_08019055_27_M.2,,,,High performance liquid chromatography - fluorescence detection (HPLC-FLD),http://cdr.eionet.europa.eu/es/eu/aqd/d/envxfin7q
Spain,ES.BDCA.AQD,CCAA Cataluña,DIRECCIO GENERAL DE QUALITAT AMBIENTAL. SERVICIO DE VIGILANCIA Y CONTROL DEL AIRE (CATALUNA),UTC,Esplugues de Llobregat (CEIP Isidre Martí),ES0266A,Background,Urban,Particulate matter < 10 µm (aerosol),SP_08077002_10_M,41.3793,2.0861,108,Continuous data collection,2007-01-01T00:00:00Z,2018-12-31T00:00:00Z,SAM_08077002_10_M,SPP_08077002_10_M.1,,,,Gravimetric analysis,http://cdr.eionet.europa.eu/es/eu/aqd/d/envxfin7q
Spain,ES.BDCA.AQD,CCAA Cataluña,DIRECCIO GENERAL DE QUALITAT AMBIENTAL. SERVICIO DE VIGILANCIA Y CONTROL DEL AIRE (CATALUNA),UTC,l'Hospitalet de Llobregat (av. del Torrent Gornal),ES0692A,Background,Urban,Particulate matter < 2.5 µm (aerosol),SP_08101001_9_M,41.370504108,2.114973082,29,Continuous data collection,2010-10-01T00:00:00Z,,SAM_08101001_9_M,SPP_08101001_9_M.1,,,,Gravimetric analysis,http://cdr.eionet.europa.eu/es/eu/aqd/d/envxfin7q
Spain,ES.BDCA.AQD,CCAA Cataluña,DIRECCIO GENERAL DE QUALITAT AMBIENTAL. SERVICIO DE VIGILANCIA Y CONTROL DEL AIRE (CATALUNA),UTC,Manlleu (hospital comarcal),ES1397A,Background,Suburban,Benzo(a)anthracene in PM10 (aerosol),SP_08112003_99_M,42.003276504,2.287271914,460,Continuous data collection,2013-01-01T00:00:00Z,,SAM_08112003_99_M,SPP_08112003_99_M.1,,,,Gas chromatography + mass spectrometry (GC-MS),http://cdr.eionet.europa.eu/es/eu/aqd/d/envxfin7q
Spain,ES.BDCA.AQD,CCAA Cataluña,DIRECCIO GENERAL DE QUALITAT AMBIENTAL. SERVICIO DE VIGILANCIA Y CONTROL DEL AIRE (CATALUNA),UTC,Mollet del Vallès (pista d'atletisme),ES1814A,Traffic,Suburban,Nitrogen oxides (air),SP_08124009_12_8,41.549168894,2.212050059,90,Continuous data collection,2005-08-01T00:00:00Z,,SAM_08124009_12_8,SPP_08124009_12_8.1,Unknown,Chemiluminescence,,,http://cdr.eionet.europa.eu/es/eu/aqd/d/envxfin7q
Spain,ES.BDCA.AQD,CCAA Cataluña,DIRECCIO GENERAL DE QUALITAT AMBIENTAL. SERVICIO DE VIGILANCIA Y CONTROL DEL AIRE (CATALUNA),UTC,Montcada i Reixac (ajuntament),ES1665A,Industrial,Suburban,Benzo(a)anthracene in PM10 (aerosol),SP_08125012_99_M,41.479955339,2.187268328,44,Continuous data collection,2009-01-01T00:00:00Z,,SAM_08125012_99_M,SPP_08125012_99_M.1,,,,Gas chromatography + mass spectrometry (GC-MS),http://cdr.eionet.europa.eu/es/eu/aqd/d/envxfin7q
Spain,ES.BDCA.AQD,CCAA Cataluña,DIRECCIO GENERAL DE QUALITAT AMBIENTAL. SERVICIO DE VIGILANCIA Y CONTROL DEL AIRE (CATALUNA),UTC,el Prat de Llobregat (jardins de la pau),ES1929A,Background,Suburban,Particulate matter < 10 µm (aerosol),SP_08169008_10_M,41.32149521,2.09772526,5,Continuous data collection,2010-01-01T00:00:00Z,,SAM_08169008_10_M,SPP_08169008_10_M.1,,,,Gravimetric analysis,http://cdr.eionet.europa.eu/es/eu/aqd/d/envxfin7q
Spain,ES.BDCA.AQD,CCAA Cataluña,DIRECCIO GENERAL DE QUALITAT AMBIENTAL. SERVICIO DE VIGILANCIA Y CONTROL DEL AIRE (CATALUNA),UTC,el Pont de Vilomara i Rocafort (CEIP Pompeu Fabra),ES1777A,Background,Rural,Nickel in PM10 (aerosol),SP_08182004_62_M,41.701765985,1.87224076,210,Continuous data collection,2010-01-01T00:00:00Z,2011-12-31T00:00:00Z,SAM_08182004_62_M,SPP_08182004_62_M.2,,,,Inductive coupled plasma atomic emission spectrometry (ICP-AES),http://cdr.eionet.europa.eu/es/eu/aqd/d/envxfin7q
Spain,ES.BDCA.AQD,CCAA Cataluña,DIRECCIO GENERAL DE QUALITAT AMBIENTAL. SERVICIO DE VIGILANCIA Y CONTROL DEL AIRE (CATALUNA),UTC,Rubí (ca n'Oriol),ES1684A,Background,Urban,"m,p-Xylene (air)",SP_08184006_431_M,41.492082863,2.042497085,171,Continuous data collection,2009-01-01T00:00:00Z,2011-12-31T00:00:00Z,SAM_08184006_431_M,SPP_08184006_431_M.1,,,,GC-MS type,http://cdr.eionet.europa.eu/es/eu/aqd/d/envxfin7q
Spain,ES.BDCA.AQD,CCAA Cataluña,DIRECCIO GENERAL DE QUALITAT AMBIENTAL. SERVICIO DE VIGILANCIA Y CONTROL DEL AIRE (CATALUNA),UTC,Sant Andreu de la Barca (CEIP Josep Pla),ES0971A,Traffic,Suburban,Particulate matter < 10 µm (aerosol),SP_08196001_10_M,41.450769339,1.974887306,40,Continuous data collection,1997-10-01T00:00:00Z,2017-03-14T00:00:00Z,SAM_08196001_10_M,SPP_08196001_10_M.1,,,,Gravimetric analysis,http://cdr.eionet.europa.eu/es/eu/aqd/d/envxfin7q
Spain,ES.BDCA.AQD,CCAA Cataluña,DIRECCIO GENERAL DE QUALITAT AMBIENTAL. SERVICIO DE VIGILANCIA Y CONTROL DEL AIRE (CATALUNA),UTC,Sant Celoni (Carles Damm),ES1275A,Background,Suburban,Particulate matter < 10 µm (aerosol),SP_08202001_10_47,41.689049442,2.495746675,145,Continuous data collection,2016-01-01T00:00:00Z,,SAM_08202001_10_47,SPP_08202001_10_47.1,TEOM 1400A,Tapered Element Oscillating Microbalance (TEOM),,,http://cdr.eionet.europa.eu/es/eu/aqd/d/envxfin7q
Spain,ES.BDCA.AQD,CCAA Cataluña,DIRECCIO GENERAL DE QUALITAT AMBIENTAL. SERVICIO DE VIGILANCIA Y CONTROL DEL AIRE (CATALUNA),UTC,Súria (CEIP Francesc Macià),ES1220A,Traffic,Rural,Arsenic in PM10 (aerosol),SP_08274004_17_M,41.830977786,1.755282654,325,Continuous data collection,2006-01-01T00:00:00Z,,SAM_08274004_17_M,SPP_08274004_17_M.1,,,,Inductive coupled plasma mass spectrometryscopy (ICP-MS),http://cdr.eionet.europa.eu/es/eu/aqd/d/envxfin7q
Spain,ES.BDCA.AQD,CCAA Cataluña,DIRECCIO GENERAL DE QUALITAT AMBIENTAL. SERVICIO DE VIGILANCIA Y CONTROL DEL AIRE (CATALUNA),UTC,Terrassa (Pare Alegre),ES1018A,Traffic,Urban,Sulphur dioxide (air),SP_08279011_1_38,41.556115398,2.007401267,261,Continuous data collection,1990-09-01T00:00:00Z,,SAM_08279011_1_38,SPP_08279011_1_38.1,Environnement S.A. Model AF21M SO2 Analyzer,UV fluorescence,,,http://cdr.eionet.europa.eu/es/eu/aqd/d/envxfin7q
Spain,ES.BDCA.AQD,CCAA Cataluña,DIRECCIO GENERAL DE QUALITAT AMBIENTAL. SERVICIO DE VIGILANCIA Y CONTROL DEL AIRE (CATALUNA),UTC,Tona (zona esportiva),ES1923A,Background,Rural,2-Pentene (air),SP_08283004_435_M,41.846034209,2.217575622,620,Continuous data collection,2009-06-01T00:00:00Z,,SAM_08283004_435_M,SPP_08283004_435_M.1,,,,GC-MS type,http://cdr.eionet.europa.eu/es/eu/aqd/d/envxfin7q
Spain,ES.BDCA.AQD,CCAA Cataluña,DIRECCIO GENERAL DE QUALITAT AMBIENTAL. SERVICIO DE VIGILANCIA Y CONTROL DEL AIRE (CATALUNA),UTC,Vilanova i la Geltrú (centre cívic Tacó),ES1447A,Background,Suburban,Particulate matter < 10 µm (aerosol),SP_08307013_10_M,41.23429,1.72692,32,Continuous data collection,2005-01-01T00:00:00Z,2016-01-01T00:00:00Z,SAM_08307013_10_M,SPP_08307013_10_M.1,,,,Gravimetric analysis,http://cdr.eionet.europa.eu/es/eu/aqd/d/envxfin7q
Spain,ES.BDCA.AQD,CCAA Castilla y León,DIRECCIÓN GENERAL DE CALIDAD Y SOSTENIBILIDAD AMBIENTAL. JUNTA DE CASTILLA Y LEÓN,UTC,MIRANDA DE EBRO 2,ES1346A,Industrial,Urban,Nitrogen dioxide (air),SP_09219002_8_8,42.68805555,-2.94055555,471,Continuous data collection,1994-01-01T00:00:00Z,,SAM_09219002_8_8,SPP_09219002_8_8.1,Unknown,Chemiluminescence,,,http://cdr.eionet.europa.eu/es/eu/aqd/d/envxfin7q
Spain,ES.BDCA.AQD,CCAA Andalucía,"CONSEJERIA DE AGRICULTURA, GANADERIA, PESCA Y DESARROLLO SOSTENIBLE. DIRECCION GENERAL DE CALIDAD AMBIENTAL Y CAMBIO CLIMATICO (JUNTA DE ANDALUCIA)",UTC,COLEGIO (S1),ES0629A,Industrial,Urban,Nitrogen monoxide (air),SP_11008003_7_8,36.18562,-5.48893,30,Continuous data collection,2003-03-14T00:00:00Z,,SAM_11008003_7_8,SPP_11008003_7_8.1,Unknown,Chemiluminescence,,,http://cdr.eionet.europa.eu/es/eu/aqd/d/envxfin7q
Spain,ES.BDCA.AQD,CCAA Andalucía,"CONSEJERIA DE AGRICULTURA, GANADERIA, PESCA Y DESARROLLO SOSTENIBLE. DIRECCION GENERAL DE CALIDAD AMBIENTAL Y CAMBIO CLIMATICO (JUNTA DE ANDALUCIA)",UTC,PALMONES (S5),ES0633A,Industrial,Urban,Nitrogen dioxide (air),SP_11008006_8_8,36.1747,-5.43277,1,Continuous data collection,2015-12-15T00:00:00Z,,SAM_11008006_8_8,SPP_11008006_8_8.2,Unknown,Chemiluminescence,,,http://cdr.eionet.europa.eu/es/eu/aqd/d/envxfin7q
Spain,ES.BDCA.AQD,EMEP/VAG/CAMP,AGENCIA ESTATAL METEOROLOGÍA,UTC,SAN PABLO DE LOS MONTES,ES0001R,Background,Rural,Nitrogen oxides (air),SP_45153999_12_8,39.54694,-4.35056,917,Continuous data collection,1987-11-01T00:00:00Z,,SAM_45153999_12_8,SPP_45153999_12_8.1,Unknown,Chemiluminescence,,,http://cdr.eionet.europa.eu/es/eu/aqd/d/envxfin7q
Spain,ES.BDCA.AQD,EMEP/VAG/CAMP,AGENCIA ESTATAL METEOROLOGÍA,UTC,SAN PABLO DE LOS MONTES,ES0001R,Background,Rural,Mercury (precip+dry_dep),SP_45153999_300_I,39.54694,-4.35056,917,Continuous data collection,2007-01-01T00:00:00Z,,SAM_45153999_300_I,SPP_45153999_300_I.1,,,,Inductive coupled plasma mass spectrometryscopy (ICP-MS),http://cdr.eionet.europa.eu/es/eu/aqd/d/envxfin7q
Spain,ES.BDCA.AQD,EMEP/VAG/CAMP,AGENCIA ESTATAL METEOROLOGÍA,UTC,SAN PABLO DE LOS MONTES,ES0001R,Background,Rural,n-Butane (air),SP_45153999_406_M,39.54694,-4.35056,917,Continuous data collection,2009-12-01T00:00:00Z,,SAM_45153999_406_M,SPP_45153999_406_M.1,,,,GC-FID,http://cdr.eionet.europa.eu/es/eu/aqd/d/envxfin7q
Spain,ES.BDCA.AQD,EMEP/VAG/CAMP,AGENCIA ESTATAL METEOROLOGÍA,UTC,SAN PABLO DE LOS MONTES,ES0001R,Background,Rural,Benzo(k)fluoranthene in PM10 (aerosol),SP_45153999_96_M,39.54694,-4.35056,917,Continuous data collection,2009-01-01T00:00:00Z,,SAM_45153999_96_M,SPP_45153999_96_M.1,,,,Gas chromatography + mass spectrometry (GC-MS),http://cdr.eionet.europa.eu/es/eu/aqd/d/envxfin7q
Spain,ES.BDCA.AQD,CCAA Com. Valenciana,"CONSELLERIA DE AGRICULTURA, MEDIO AMBIENTE, CAMBIO CLIMATICO Y DESARROLLO RURAL (VALENCIA)",UTC,ALZIRA,ES1617A,Background,Suburban,Nitrogen oxides (air),SP_46017002_12_8,39.15,-0.45777777,60,Continuous data collection,2001-11-09T00:00:00Z,,SAM_46017002_12_8,SPP_46017002_12_8.1,Unknown,Chemiluminescence,,,http://cdr.eionet.europa.eu/es/eu/aqd/d/envxfin7q
Spain,ES.BDCA.AQD,CCAA Com. Valenciana,"CONSELLERIA DE AGRICULTURA, MEDIO AMBIENTE, CAMBIO CLIMATICO Y DESARROLLO RURAL (VALENCIA)",UTC,ALZIRA,ES1617A,Background,Suburban,fluoranthene (air+aerosol),SP_46017002_77_M,39.15,-0.45777777,60,Continuous data collection,2010-04-01T00:00:00Z,,SAM_46017002_77_M,SPP_46017002_77_M.1,,,,Gas chromatography + mass spectrometry (GC-MS),http://cdr.eionet.europa.eu/es/eu/aqd/d/envxfin7q
Spain,ES.BDCA.AQD,CCAA Com. Valenciana,"CONSELLERIA DE AGRICULTURA, MEDIO AMBIENTE, CAMBIO CLIMATICO Y DESARROLLO RURAL (VALENCIA)",UTC,ALZIRA,ES1617A,Background,Suburban,Nitrogen dioxide (air),SP_46017002_8_8,39.15,-0.45777777,60,Continuous data collection,2001-11-09T00:00:00Z,,SAM_46017002_8_8,SPP_46017002_8_8.1,Unknown,Chemiluminescence,,,http://cdr.eionet.europa.eu/es/eu/aqd/d/envxfin7q
Spain,ES.BDCA.AQD,CCAA Com. Valenciana,"CONSELLERIA DE AGRICULTURA, MEDIO AMBIENTE, CAMBIO CLIMATICO Y DESARROLLO RURAL (VALENCIA)",UTC,BUÑOL CEMEX,ES1886A,Industrial,Suburban,Nitrogen oxides (air),SP_46077006_12_8,39.42722222,-0.78388888,400,Continuous data collection,2007-05-21T00:00:00Z,,SAM_46077006_12_8,SPP_46077006_12_8.1,Unknown,Chemiluminescence,,,http://cdr.eionet.europa.eu/es/eu/aqd/d/envxfin7q
Spain,ES.BDCA.AQD,CCAA Com. Valenciana,"CONSELLERIA DE AGRICULTURA, MEDIO AMBIENTE, CAMBIO CLIMATICO Y DESARROLLO RURAL (VALENCIA)",UTC,BURJASSOT - FACULTATS,ES1625A,Traffic,Urban,Nitrogen dioxide (air),SP_46078004_8_8,39.50944444,-0.41777777,25,Continuous data collection,2002-07-01T00:00:00Z,2016-03-04T00:00:00Z,SAM_46078004_8_8,SPP_46078004_8_8.1,Unknown,Chemiluminescence,,,http://cdr.eionet.europa.eu/es/eu/aqd/d/envxfin7q
Spain,ES.BDCA.AQD,CCAA Com. Valenciana,"CONSELLERIA DE AGRICULTURA, MEDIO AMBIENTE, CAMBIO CLIMATICO Y DESARROLLO RURAL (VALENCIA)",UTC,BURJASSOT - FACULTATS,ES1625A,Traffic,Urban,indeno_123cd_pyrene in PM10 (aerosol),SP_46078004_95_M,39.50944444,-0.41777777,25,Continuous data collection,2010-04-01T00:00:00Z,,SAM_46078004_95_M,SPP_46078004_95_M.1,,,,Gas chromatography + mass spectrometry (GC-MS),http://cdr.eionet.europa.eu/es/eu/aqd/d/envxfin7q
Spain,ES.BDCA.AQD,CCAA Com. Valenciana,"CONSELLERIA DE AGRICULTURA, MEDIO AMBIENTE, CAMBIO CLIMATICO Y DESARROLLO RURAL (VALENCIA)",UTC,ONTINYENT,ES1711A,Background,Suburban,Particulate matter < 2.5 µm (aerosol),SP_46184002_9_46,38.78805555,-0.69722222,510,Continuous data collection,2005-01-01T00:00:00Z,,SAM_46184002_9_46,SPP_46184002_9_46.1,Unknown,Light scattering,,,http://cdr.eionet.europa.eu/es/eu/aqd/d/envxfin7q
Spain,ES.BDCA.AQD,CCAA Com. Valenciana,"CONSELLERIA DE AGRICULTURA, MEDIO AMBIENTE, CAMBIO CLIMATICO Y DESARROLLO RURAL (VALENCIA)",UTC,PATERNA-CEAM,ES1826A,Background,Suburban,Ozone (air),SP_46190005_14_6,39.55138888,-0.46083333,122,Continuous data collection,2005-12-03T00:00:00Z,2016-03-31T00:00:00Z,SAM_46190005_14_6,SPP_46190005_14_6.1,Unknown,Ultraviolet (UV) photometry,,,http://cdr.eionet.europa.eu/es/eu/aqd/d/envxfin7q
Spain,ES.BDCA.AQD,CCAA Com. Valenciana,"CONSELLERIA DE AGRICULTURA, MEDIO AMBIENTE, CAMBIO CLIMATICO Y DESARROLLO RURAL (VALENCIA)",UTC,TORREBAJA,ES1917A,Background,Rural,Benzo(b)fluoranthene in PM10 (aerosol),SP_46242001_98_M,40.09944444,-1.25388888,728,Continuous data collection,2013-01-01T00:00:00Z,,SAM_46242001_98_M,SPP_46242001_98_M.1,,,,Gas chromatography + mass spectrometry (GC-MS),http://cdr.eionet.europa.eu/es/eu/aqd/d/envxfin7q
Spain,ES.BDCA.AQD,CCAA Com. Valenciana,"CONSELLERIA DE AGRICULTURA, MEDIO AMBIENTE, CAMBIO CLIMATICO Y DESARROLLO RURAL (VALENCIA)",UTC,TORREBAJA,ES1917A,Background,Rural,Particulate matter < 2.5 µm (aerosol),SP_46242001_9_M,40.09944444,-1.25388888,728,Continuous data collection,2006-08-17T00:00:00Z,,SAM_46242001_9_M,SPP_46242001_9_M.1,,,,Gravimetric analysis,http://cdr.eionet.europa.eu/es/eu/aqd/d/envxfin7q
Spain,ES.BDCA.AQD,EMEP/VAG/CAMP,AGENCIA ESTATAL METEOROLOGÍA,UTC,ZARRA,ES0012R,Background,Rural,magnesium in PM2.5 (aerosol),SP_46263999_131_M,39.08278,-1.10111,885,Continuous data collection,2020-01-01T00:00:00Z,,SAM_46263999_131_M,SPP_46263999_131_M.1,,,,Inductive coupled plasma atomic emission spectrometry (ICP-AES),http://cdr.eionet.europa.eu/es/eu/aqd/d/envxfin7q
Spain,ES.BDCA.AQD,EMEP/VAG/CAMP,AGENCIA ESTATAL METEOROLOGÍA,UTC,ZARRA,ES0012R,Background,Rural,fluoranthene (precip+dry_dep),SP_46263999_310_I,39.08278,-1.10111,885,Continuous data collection,2015-01-01T00:00:00Z,,SAM_46263999_310_I,SPP_46263999_310_I.1,,,,Gas chromatography + mass spectrometry (GC-MS),http://cdr.eionet.europa.eu/es/eu/aqd/d/envxfin7q
Spain,ES.BDCA.AQD,CCAA Castilla y León,DIRECCIÓN GENERAL DE CALIDAD Y SOSTENIBILIDAD AMBIENTAL. JUNTA DE CASTILLA Y LEÓN,UTC,MEDINA DEL CAMPO,ES1162A,Industrial,Suburban,Cadmium in PM10 (aerosol),SP_47085003_28_M,41.31638888,-4.90916666,721,Continuous data collection,2009-01-01T00:00:00Z,,SAM_47085003_28_M,SPP_47085003_28_M.1,,,,Atomic absorption spectrometry (AAS),http://cdr.eionet.europa.eu/es/eu/aqd/d/envxfin7q
Spain,ES.BDCA.AQD,CCAA Castilla y León,DIRECCIÓN GENERAL DE CALIDAD Y SOSTENIBILIDAD AMBIENTAL. JUNTA DE CASTILLA Y LEÓN,UTC,MEDINA DEL CAMPO,ES1162A,Industrial,Suburban,Nitrogen monoxide (air),SP_47085003_7_8,41.31638888,-4.90916666,721,Continuous data collection,1992-01-01T00:00:00Z,,SAM_47085003_7_8,SPP_47085003_7_8.1,Unknown,Chemiluminescence,,,http://cdr.eionet.europa.eu/es/eu/aqd/d/envxfin7q
Spain,ES.BDCA.AQD,CCAA Castilla y León,DIRECCIÓN GENERAL DE CALIDAD Y SOSTENIBILIDAD AMBIENTAL. JUNTA DE CASTILLA Y LEÓN,UTC,ARCO DE LADRILLO II,ES1631A,Traffic,Urban,"m,p-Xylene (air)",SP_47186027_431_59,41.64555555,-4.73027777,700,Continuous data collection,2012-01-01T00:00:00Z,,SAM_47186027_431_59,SPP_47186027_431_59.1,Unknown,Gas chromatography followed by mass spectrometry (GC-MS),,,http://cdr.eionet.europa.eu/es/eu/aqd/d/envxfin7q
Spain,ES.BDCA.AQD,CCAA País Vasco,"DEPARTAMENTO DE MEDIO AMBIENTE, POLITICA TERRITORIAL Y VIVIENDA - GOBIERNO VASCO",UTC,ERANDIO,ES0110A,Traffic,Urban,Carbon monoxide (air),SP_48902006_6_48,43.30268,-2.97724,4,Continuous data collection,1986-05-01T00:00:00Z,,SAM_48902006_6_48,SPP_48902006_6_48.1,Unknown,Non-dispersive infrared spectroscopy (NDIR),,,http://cdr.eionet.europa.eu/es/eu/aqd/d/envxfin7q
Spain,ES.BDCA.AQD,CCAA Aragón,DIRECCIÓN GENERAL DE SOSTENIBILIDAD DEL GOBIERNO DE ARAGÓN,UTC,ALAGÓN,ES1418A,Traffic,Suburban,Sulphur dioxide (air),SP_50008001_1_38,41.76278,-1.14333,235,Continuous data collection,1995-06-01T00:00:00Z,,SAM_50008001_1_38,SPP_50008001_1_38.1,Thermo model 43i SO2 analyser,UV fluorescence,,,http://cdr.eionet.europa.eu/es/eu/aqd/d/envxfin7q
Spain,ES.BDCA.AQD,Ayto Zaragoza,AYUNTAMIENTO DE ZARAGOZA. AGENCIA DE MEDIO AMBIENTE Y SOSTENIBILIDAD,UTC,ROGER DE FLOR,ES1047A,Traffic,Urban,Benzene (air),SP_50297029_30_59,41.65139,-0.91611,212,Continuous data collection,2017-01-01T00:00:00Z,,SAM_50297029_30_59,SPP_50297029_30_59.1,Unknown,Gas chromatography followed by mass spectrometry (GC-MS),,,http://cdr.eionet.europa.eu/es/eu/aqd/d/envxfin7q
Spain,ES.BDCA.AQD,Ayto Zaragoza,AYUNTAMIENTO DE ZARAGOZA. AGENCIA DE MEDIO AMBIENTE Y SOSTENIBILIDAD,UTC,RENOVALES,ES1641A,Background,Urban,Ozone (air),SP_50297036_14_6,41.63528,-0.89361,220,Continuous data collection,2002-10-01T00:00:00Z,,SAM_50297036_14_6,SPP_50297036_14_6.1,Thermo model 49 O3 analyser,Ultraviolet (UV) photometry,,,http://cdr.eionet.europa.eu/es/eu/aqd/d/envxfin7q
Spain,ES.BDCA.AQD,CCAA País Vasco,"DEPARTAMENTO DE MEDIO AMBIENTE, POLITICA TERRITORIAL Y VIVIENDA - GOBIERNO VASCO",UTC,TRES MARZO,ES1492A,Traffic,Urban,Mercury in PM10 (aerosol),SP_01059009_15_M,42.85607,-2.66779,518,Continuous data collection,2012-01-01T00:00:00Z,,SAM_01059009_15_M,SPP_01059009_15_M.1,,,,Cold vapour atomic fluorescence spectrometry,http://cdr.eionet.europa.eu/es/eu/aqd/d/envxfin7q
Spain,ES.BDCA.AQD,CCAA País Vasco,"DEPARTAMENTO DE MEDIO AMBIENTE, POLITICA TERRITORIAL Y VIVIENDA - GOBIERNO VASCO",UTC,TRES MARZO,ES1492A,Traffic,Urban,Manganese (aerosol),SP_01059009_61_M,42.85607,-2.66779,518,Continuous data collection,2008-01-01T00:00:00Z,,SAM_01059009_61_M,SPP_01059009_61_M.1,,,,Inductive coupled plasma mass spectrometryscopy (ICP-MS),http://cdr.eionet.europa.eu/es/eu/aqd/d/envxfin7q
Spain,ES.BDCA.AQD,CCAA Com. Valenciana,"CONSELLERIA DE AGRICULTURA, MEDIO AMBIENTE, CAMBIO CLIMATICO Y DESARROLLO RURAL (VALENCIA)",UTC,ALCOI - VERGE DELS LLIRIS,ES1623A,Background,Urban,Particulate matter < 10 µm (aerosol),SP_03009006_10_M,38.70638888,-0.46694444,534,Continuous data collection,2002-10-01T00:00:00Z,,SAM_03009006_10_M,SPP_03009006_10_M.1,,,,Gravimetric analysis,http://cdr.eionet.europa.eu/es/eu/aqd/d/envxfin7q
Spain,ES.BDCA.AQD,CCAA Com. Valenciana,"CONSELLERIA DE AGRICULTURA, MEDIO AMBIENTE, CAMBIO CLIMATICO Y DESARROLLO RURAL (VALENCIA)",UTC,ALACANT-EL PLÁ,ES1635A,Traffic,Urban,Cadmium in PM10 (aerosol),SP_03014006_28_M,38.35944444,-0.47194444,45,Continuous data collection,2005-01-01T00:00:00Z,,SAM_03014006_28_M,SPP_03014006_28_M.1,,,,Inductive coupled plasma mass spectrometryscopy (ICP-MS),http://cdr.eionet.europa.eu/es/eu/aqd/d/envxfin7q
Spain,ES.BDCA.AQD,CCAA Com. Valenciana,"CONSELLERIA DE AGRICULTURA, MEDIO AMBIENTE, CAMBIO CLIMATICO Y DESARROLLO RURAL (VALENCIA)",UTC,ALACANT-EL PLÁ,ES1635A,Traffic,Urban,fluoranthene (air+aerosol),SP_03014006_77_M,38.35944444,-0.47194444,45,Continuous data collection,2009-01-01T00:00:00Z,,SAM_03014006_77_M,SPP_03014006_77_M.1,,,,Gas chromatography + mass spectrometry (GC-MS),http://cdr.eionet.europa.eu/es/eu/aqd/d/envxfin7q
Spain,ES.BDCA.AQD,CCAA Com. Valenciana,"CONSELLERIA DE AGRICULTURA, MEDIO AMBIENTE, CAMBIO CLIMATICO Y DESARROLLO RURAL (VALENCIA)",UTC,ALACANT-EL PLÁ,ES1635A,Traffic,Urban,Nitrogen dioxide (air),SP_03014006_8_8,38.35944444,-0.47194444,45,Continuous data collection,2016-03-16T00:00:00Z,,SAM_03014006_8_8,SPP_03014006_8_8.2,serinus 40 Nox,Chemiluminescence,,,http://cdr.eionet.europa.eu/es/eu/aqd/d/envxfin7q
Spain,ES.BDCA.AQD,CCAA Com. Valenciana,"CONSELLERIA DE AGRICULTURA, MEDIO AMBIENTE, CAMBIO CLIMATICO Y DESARROLLO RURAL (VALENCIA)",UTC,ALACANT-EL PLÁ,ES1635A,Traffic,Urban,Nitrogen dioxide (air),SP_03014006_8_8,38.35944444,-0.47194444,45,Continuous data collection,2002-07-01T00:00:00Z,2016-03-15T00:00:00Z,SAM_03014006_8_8,SPP_03014006_8_8.1,Unknown,Chemiluminescence,,,http://cdr.eionet.europa.eu/es/eu/aqd/d/envxfin7q
Spain,ES.BDCA.AQD,CCAA Com. Valenciana,"CONSELLERIA DE AGRICULTURA, MEDIO AMBIENTE, CAMBIO CLIMATICO Y DESARROLLO RURAL (VALENCIA)",UTC,ELX-AGROALIMENTARI,ES1624A,Background,Suburban,Ozone (air),SP_03065006_14_6,38.24222222,-0.68277777,44,Continuous data collection,2002-06-27T00:00:00Z,2016-03-10T00:00:00Z,SAM_03065006_14_6,SPP_03065006_14_6.1,Unknown,Ultraviolet (UV) photometry,,,http://cdr.eionet.europa.eu/es/eu/aqd/d/envxfin7q
Spain,ES.BDCA.AQD,CCAA Com. Valenciana,"CONSELLERIA DE AGRICULTURA, MEDIO AMBIENTE, CAMBIO CLIMATICO Y DESARROLLO RURAL (VALENCIA)",UTC,ELX-AGROALIMENTARI,ES1624A,Background,Suburban,Nickel in PM10 (aerosol),SP_03065006_62_M,38.24222222,-0.68277777,44,Continuous data collection,2005-01-01T00:00:00Z,,SAM_03065006_62_M,SPP_03065006_62_M.1,,,,Inductive coupled plasma mass spectrometryscopy (ICP-MS),http://cdr.eionet.europa.eu/es/eu/aqd/d/envxfin7q
Spain,ES.BDCA.AQD,CCAA Com. Valenciana,"CONSELLERIA DE AGRICULTURA, MEDIO AMBIENTE, CAMBIO CLIMATICO Y DESARROLLO RURAL (VALENCIA)",UTC,ELX-PARC DE BOMBERS,ES1849A,Traffic,Urban,Nitrogen monoxide (air),SP_03065007_7_8,38.25916666,-0.7175,99,Continuous data collection,2016-03-05T00:00:00Z,,SAM_03065007_7_8,SPP_03065007_7_8.2,Unknown,Chemiluminescence,,,http://cdr.eionet.europa.eu/es/eu/aqd/d/envxfin7q
Spain,ES.BDCA.AQD,CCAA Com. Valenciana,"CONSELLERIA DE AGRICULTURA, MEDIO AMBIENTE, CAMBIO CLIMATICO Y DESARROLLO RURAL (VALENCIA)",UTC,TORREVIEJA,ES2008A,Traffic,Urban,Nickel in PM10 (aerosol),SP_03133002_62_M,37.99111111,-0.69,10,Continuous data collection,2011-01-01T00:00:00Z,,SAM_03133002_62_M,SPP_03133002_62_M.1,,,,Inductive coupled plasma mass spectrometryscopy (ICP-MS),http://cdr.eionet.europa.eu/es/eu/aqd/d/envxfin7q
Spain,ES.BDCA.AQD,CCAA Andalucía,"CONSEJERIA DE AGRICULTURA, GANADERIA, PESCA Y DESARROLLO SOSTENIBLE. DIRECCION GENERAL DE CALIDAD AMBIENTAL Y CAMBIO CLIMATICO (JUNTA DE ANDALUCIA)",UTC,MEDITERRÁNEO,ES1393A,Traffic,Urban,Benzo(ghi)perylene in PM10 (aerosol),SP_04013004_80_M,36.84133,-2.44672,51,Continuous data collection,2008-01-01T00:00:00Z,2008-12-31T00:00:00Z,SAM_04013004_80_M,SPP_04013004_80_M.1,,,,Gas chromatography + mass spectrometry (GC-MS),http://cdr.eionet.europa.eu/es/eu/aqd/d/envxfin7q
Spain,ES.BDCA.AQD,CCAA Andalucía,"CONSEJERIA DE AGRICULTURA, GANADERIA, PESCA Y DESARROLLO SOSTENIBLE. DIRECCION GENERAL DE CALIDAD AMBIENTAL Y CAMBIO CLIMATICO (JUNTA DE ANDALUCIA)",UTC,MEDITERRÁNEO,ES1393A,Traffic,Urban,Particulate matter < 2.5 µm (aerosol),SP_04013004_9_M,36.84133,-2.44672,51,Continuous data collection,2009-01-01T00:00:00Z,,SAM_04013004_9_M,SPP_04013004_9_M.1,,,,Gravimetric analysis,http://cdr.eionet.europa.eu/es/eu/aqd/d/envxfin7q
Spain,ES.BDCA.AQD,CCAA Andalucía,"CONSEJERIA DE AGRICULTURA, GANADERIA, PESCA Y DESARROLLO SOSTENIBLE. DIRECCION GENERAL DE CALIDAD AMBIENTAL Y CAMBIO CLIMATICO (JUNTA DE ANDALUCIA)",UTC,LA GRANATILLA,ES2066A,Industrial,Suburban,Nitrogen monoxide (air),SP_04066009_7_8,36.9581,-2.1592,200,Continuous data collection,2015-07-13T00:00:00Z,,SAM_04066009_7_8,SPP_04066009_7_8.1,Unknown,Chemiluminescence,,,http://cdr.eionet.europa.eu/es/eu/aqd/d/envxfin7q
Spain,ES.BDCA.AQD,CCAA Andalucía,"CONSEJERIA DE AGRICULTURA, GANADERIA, PESCA Y DESARROLLO SOSTENIBLE. DIRECCION GENERAL DE CALIDAD AMBIENTAL Y CAMBIO CLIMATICO (JUNTA DE ANDALUCIA)",UTC,EL EJIDO,ES1549A,Background,Urban,Nitrogen oxides (air),SP_04902001_12_8,36.76972,-2.81097,97,Continuous data collection,2000-06-23T00:00:00Z,,SAM_04902001_12_8,SPP_04902001_12_8.1,Unknown,Chemiluminescence,,,http://cdr.eionet.europa.eu/es/eu/aqd/d/envxfin7q
Spain,ES.BDCA.AQD,EMEP/VAG/CAMP,AGENCIA ESTATAL METEOROLOGÍA,UTC,BARCARROTA,ES0011R,Background,Rural,Particulate matter < 2.5 µm (aerosol),SP_06016999_9_M,38.47278,-6.92361,393,Continuous data collection,2001-03-01T00:00:00Z,,SAM_06016999_9_M,SPP_06016999_9_M.1,,,,Gravimetric analysis,http://cdr.eionet.europa.eu/es/eu/aqd/d/envxfin7q
Spain,ES.BDCA.AQD,CCAA Extremadura,"CONSEJERIA DE MEDIO AMBIENTE Y RURAL, POLITICAS AGRARIAS Y TERRITORIO (JUNTA DE EXTREMADURA)",UTC,MERIDA,ES1819A,Background,Urban,Nitrogen monoxide (air),SP_06083001_7_8,38.9075,-6.33806,214,Continuous data collection,2006-07-27T00:00:00Z,,SAM_06083001_7_8,SPP_06083001_7_8.1,Unknown,Chemiluminescence,,,http://cdr.eionet.europa.eu/es/eu/aqd/d/envxfin7q
Spain,ES.BDCA.AQD,CCAA Islas Baleares,"DIRECCIÓ GENERAL D'ENERGIA I CANVI CLIMÀTIC. CONSELLERIA DE TERRITORI, ENERGIA I MOBILITAT. SECCIÓ CONTAMINACIÓ ATMOSFÈRICA. GOVERN DE LES ILLES BALEARS",UTC,HOSPITAL JOAN MARCH,ES1827A,Background,Rural,Nitrogen monoxide (air),SP_07010001_7_8,39.67766,2.68665,172,Continuous data collection,2005-01-01T00:00:00Z,,SAM_07010001_7_8,SPP_07010001_7_8.1,Thermo model 42i NO/Nox analyser,Chemiluminescence,,,http://cdr.eionet.europa.eu/es/eu/aqd/d/envxfin7q
Spain,ES.BDCA.AQD,CCAA Islas Baleares,"DIRECCIÓ GENERAL D'ENERGIA I CANVI CLIMÀTIC. CONSELLERIA DE TERRITORI, ENERGIA I MOBILITAT. SECCIÓ CONTAMINACIÓ ATMOSFÈRICA. GOVERN DE LES ILLES BALEARS",UTC,CAN MISSES,ES1246A,Industrial,Urban,Cadmium in PM10 (aerosol),SP_07026001_28_M,38.9138,1.4143,25,Continuous data collection,2012-01-01T00:00:00Z,,SAM_07026001_28_M,SPP_07026001_28_M.1,,,,Graphite furnace atomic absorption spectrometry (GF-AAS),http://cdr.eionet.europa.eu/es/eu/aqd/d/envxfin7q
Spain,ES.BDCA.AQD,CCAA Com. Valenciana,"CONSELLERIA DE AGRICULTURA, MEDIO AMBIENTE, CAMBIO CLIMATICO Y DESARROLLO RURAL (VALENCIA)",UTC,EL PINÓS,ES1913A,Background,Rural,Ozone (air),SP_03105001_14_6,38.45166666,-1.06472222,642,Continuous data collection,2006-01-18T00:00:00Z,,SAM_03105001_14_6,SPP_03105001_14_6.1,Unknown,Ultraviolet (UV) photometry,,,http://cdr.eionet.europa.eu/es/eu/aqd/d/envxfin7q
Spain,ES.BDCA.AQD,CCAA Aragón,DIRECCIÓN GENERAL DE SOSTENIBILIDAD DEL GOBIERNO DE ARAGÓN,UTC,TORRELISA,ES1883A,Background,Rural,Nitrogen dioxide (air),SP_22190001_8_8,42.45778,0.18194,1005,Continuous data collection,2008-02-01T00:00:00Z,,SAM_22190001_8_8,SPP_22190001_8_8.1,Unknown,Chemiluminescence,,,http://cdr.eionet.europa.eu/es/eu/aqd/d/envxfin7q
Spain,ES.BDCA.AQD,CCAA Andalucía,"CONSEJERIA DE AGRICULTURA, GANADERIA, PESCA Y DESARROLLO SOSTENIBLE. DIRECCION GENERAL DE CALIDAD AMBIENTAL Y CAMBIO CLIMATICO (JUNTA DE ANDALUCIA)",UTC,BAILÉN,ES1253A,Industrial,Urban,Benzo(j)fluoranthene in PM10 (aerosol),SP_23010002_97_M,38.09293,-3.78392,368,Continuous data collection,2008-01-01T00:00:00Z,2008-12-31T00:00:00Z,SAM_23010002_97_M,SPP_23010002_97_M.1,,,,Gas chromatography + mass spectrometry (GC-MS),http://cdr.eionet.europa.eu/es/eu/aqd/d/envxfin7q
Spain,ES.BDCA.AQD,CCAA Andalucía,"CONSEJERIA DE AGRICULTURA, GANADERIA, PESCA Y DESARROLLO SOSTENIBLE. DIRECCION GENERAL DE CALIDAD AMBIENTAL Y CAMBIO CLIMATICO (JUNTA DE ANDALUCIA)",UTC,BAILÉN,ES1253A,Industrial,Urban,Benzo(b)fluoranthene in PM10 (aerosol),SP_23010002_98_M,38.09293,-3.78392,368,Continuous data collection,2009-01-01T00:00:00Z,,SAM_23010002_98_M,SPP_23010002_98_M.2,,,,High performance liquid chromatography - mass spectrometry (HPLC-MS),http://cdr.eionet.europa.eu/es/eu/aqd/d/envxfin7q
Spain,ES.BDCA.AQD,CCAA Andalucía,"CONSEJERIA DE AGRICULTURA, GANADERIA, PESCA Y DESARROLLO SOSTENIBLE. DIRECCION GENERAL DE CALIDAD AMBIENTAL Y CAMBIO CLIMATICO (JUNTA DE ANDALUCIA)",UTC,LAS FUENTEZUELAS,ES1824A,Background,Suburban,Nitrogen oxides (air),SP_23050004_12_8,37.78444,-3.81032,376,Continuous data collection,2018-12-12T00:00:00Z,,SAM_23050004_12_8,SPP_23050004_12_8.2,Thermo model 42i NO/Nox analyser,Chemiluminescence,,,http://cdr.eionet.europa.eu/es/eu/aqd/d/envxfin7q
Spain,ES.BDCA.AQD,CCAA Castilla y León,DIRECCIÓN GENERAL DE CALIDAD Y SOSTENIBILIDAD AMBIENTAL. JUNTA DE CASTILLA Y LEÓN,UTC,PONFERRADA 4,ES1790A,Industrial,Suburban,Arsenic in PM10 (aerosol),SP_24115015_17_M,42.54277777,-6.58472222,541,Continuous data collection,2012-01-01T00:00:00Z,,SAM_24115015_17_M,SPP_24115015_17_M.1,,,,Gravimetric analysis,http://cdr.eionet.europa.eu/es/eu/aqd/d/envxfin7q
Spain,ES.BDCA.AQD,CCAA Castilla y León,DIRECCIÓN GENERAL DE CALIDAD Y SOSTENIBILIDAD AMBIENTAL. JUNTA DE CASTILLA Y LEÓN,UTC,LA ROBLA,ES1297A,Industrial,Suburban,Particulate matter < 10 µm (aerosol),SP_24134006_10_49,42.80277777,-5.62361111,945,Continuous data collection,1997-07-01T00:00:00Z,,SAM_24134006_10_49,SPP_24134006_10_49.1,Unknown,Beta ray attenuation,,,http://cdr.eionet.europa.eu/es/eu/aqd/d/envxfin7q
Spain,ES.BDCA.AQD,CCAA Castilla y León,DIRECCIÓN GENERAL DE CALIDAD Y SOSTENIBILIDAD AMBIENTAL. JUNTA DE CASTILLA Y LEÓN,UTC,VALDERAS,ES2106A,Background,Suburban,Ozone (air),SP_24181001_14_6,42.0797,-5.4489,738,Continuous data collection,2020-04-01T00:00:00Z,,SAM_24181001_14_6,SPP_24181001_14_6.1,Teledyne API 400 UV photometric O3 analyser,UV fluorescence,,,http://cdr.eionet.europa.eu/es/eu/aqd/d/envxfin7q
Spain,ES.BDCA.AQD,CCAA Cataluña,DIRECCIO GENERAL DE QUALITAT AMBIENTAL. SERVICIO DE VIGILANCIA Y CONTROL DEL AIRE (CATALUNA),UTC,Bellver de Cerdanya (CEIP Mare de Déu de Talló),ES1348A,Background,Rural,"i-Octane (2,2,4-trimethylpentane) (air)",SP_25051001_436_M,42.36831811,1.776783258,1060,Continuous data collection,2012-01-01T00:00:00Z,,SAM_25051001_436_M,SPP_25051001_436_M.2,,,,Inductive coupled plasma mass spectrometryscopy (ICP-MS),http://cdr.eionet.europa.eu/es/eu/aqd/d/envxfin7q
Spain,ES.BDCA.AQD,CCAA Cataluña,DIRECCIO GENERAL DE QUALITAT AMBIENTAL. SERVICIO DE VIGILANCIA Y CONTROL DEL AIRE (CATALUNA),UTC,Lleida (Irurita - Pius XII),ES1225A,Traffic,Urban,Dibenzo(ah)anthracene in PM10 (aerosol),SP_25120001_94_M,41.615794867,0.615725897,220,Continuous data collection,2009-01-01T00:00:00Z,,SAM_25120001_94_M,SPP_25120001_94_M.1,,,,Gas chromatography + mass spectrometry (GC-MS),http://cdr.eionet.europa.eu/es/eu/aqd/d/envxfin7q
Spain,ES.BDCA.AQD,CCAA Cataluña,DIRECCIO GENERAL DE QUALITAT AMBIENTAL. SERVICIO DE VIGILANCIA Y CONTROL DEL AIRE (CATALUNA),UTC,Ponts (Ponent),ES1588A,Background,Rural,Dibenzo(ah)anthracene in PM10 (aerosol),SP_25172001_94_M,41.906647654,1.192974755,370,Continuous data collection,2015-01-01T00:00:00Z,,SAM_25172001_94_M,SPP_25172001_94_M.1,,,,Gas chromatography + mass spectrometry (GC-MS),http://cdr.eionet.europa.eu/es/eu/aqd/d/envxfin7q
Spain,ES.BDCA.AQD,CCAA La Rioja,"CONSEJERIA DE AGRICULTURA, GANADERÍA Y MEDIO AMBIENTE - DIRECCIÓN GENERAL DE CALIDAD AMBIENTAL Y AGUA (LA RIOJA)",UTC,GALILEA,ES1746A,Industrial,Rural,Sulphur dioxide (air),SP_26066001_1_38,42.341,-2.232,570,Continuous data collection,2004-09-01T00:00:00Z,,SAM_26066001_1_38,SPP_26066001_1_38.1,Unknown,UV fluorescence,,,http://cdr.eionet.europa.eu/es/eu/aqd/d/envxfin7q
Spain,ES.BDCA.AQD,CCAA Galicia,SUBDIRECCION XERAL DE METEOROLOXIA E CAMBIO CLIMATICO (XUNTA DE GALICIA),UTC,XOVE,ES0339A,Industrial,Suburban,Benzo(a)pyrene in PM10 (aerosol),SP_27025015_27_M,43.686269,-7.507778,60,Continuous data collection,2014-01-01T00:00:00Z,2015-01-01T00:00:00Z,SAM_27025015_27_M,SPP_27025015_27_M.1,,,,Gas chromatography + mass spectrometry (GC-MS),http://cdr.eionet.europa.eu/es/eu/aqd/d/envxfin7q
Spain,ES.BDCA.AQD,CCAA Galicia,SUBDIRECCION XERAL DE METEOROLOXIA E CAMBIO CLIMATICO (XUNTA DE GALICIA),UTC,LUGO-FINGOY,ES1905A,Traffic,Urban,Nickel in PM10 (aerosol),SP_27028005_62_M,42.9979,-7.5509,450,Continuous data collection,2008-07-01T00:00:00Z,,SAM_27028005_62_M,SPP_27028005_62_M.1,,,,Inductive coupled plasma mass spectrometryscopy (ICP-MS),http://cdr.eionet.europa.eu/es/eu/aqd/d/envxfin7q
